[
  {
    "id": "1",
    "name": "Teatro",
    "latitude": "28.10383060",
    "longitude": "-15.41371479"
  },
  {
    "id": "2",
    "name": "Francisco Gourié, 103",
    "latitude": "28.10749746",
    "longitude": "-15.41637148"
  },
  {
    "id": "3",
    "name": "Rafael Cabrera (San Telmo)",
    "latitude": "28.10913611",
    "longitude": "-15.41612452"
  },
  {
    "id": "4",
    "name": "Triana (parque San Telmo)",
    "latitude": "28.10826300",
    "longitude": "-15.41743600"
  },
  {
    "id": "5",
    "name": "Venegas (Usos Múltiples)",
    "latitude": "28.11259245",
    "longitude": "-15.41873934"
  },
  {
    "id": "6",
    "name": "León y Castillo, 13",
    "latitude": "28.10987174",
    "longitude": "-15.41822324"
  },
  {
    "id": "8",
    "name": "León y Castillo (pl. de La Feria)",
    "latitude": "28.11343339",
    "longitude": "-15.42004315"
  },
  {
    "id": "9",
    "name": "Luis Doreste Silva, 22",
    "latitude": "28.11611731",
    "longitude": "-15.42131181"
  },
  {
    "id": "10",
    "name": "León y Castillo, 145",
    "latitude": "28.11641053",
    "longitude": "-15.42245882"
  },
  {
    "id": "11",
    "name": "Manuel Becerra (Puerto)",
    "latitude": "28.15020789",
    "longitude": "-15.42201479"
  },
  {
    "id": "12",
    "name": "León y Castillo, 185",
    "latitude": "28.11797629",
    "longitude": "-15.42383423"
  },
  {
    "id": "13",
    "name": "León y Castillo (C.N. Metropole)",
    "latitude": "28.12211981",
    "longitude": "-15.42675145"
  },
  {
    "id": "14",
    "name": "León y Castillo, 209",
    "latitude": "28.12008373",
    "longitude": "-15.42560149"
  },
  {
    "id": "15",
    "name": "León y Castillo (Oficinas Municipales)",
    "latitude": "28.12476861",
    "longitude": "-15.42856706"
  },
  {
    "id": "16",
    "name": "León y Castillo (colegio Salesiano)",
    "latitude": "28.12269298",
    "longitude": "-15.42737560"
  },
  {
    "id": "17",
    "name": "León y Castillo (Torre Las Palmas)",
    "latitude": "28.12875648",
    "longitude": "-15.42981111"
  },
  {
    "id": "18",
    "name": "León y Castillo (Oficinas Municipales)",
    "latitude": "28.12529530",
    "longitude": "-15.42910383"
  },
  {
    "id": "20",
    "name": "Intercambiador Santa Catalina",
    "latitude": "28.14000553",
    "longitude": "-15.42862546"
  },
  {
    "id": "21",
    "name": "Primero de Mayo, 6",
    "latitude": "28.10261551",
    "longitude": "-15.41771811"
  },
  {
    "id": "22",
    "name": "León y Castillo (edificio José Antonio)",
    "latitude": "28.13257606",
    "longitude": "-15.43007608"
  },
  {
    "id": "23",
    "name": "Juan Manuel Durán González (Base Naval)",
    "latitude": "28.13561132",
    "longitude": "-15.43017263"
  },
  {
    "id": "24",
    "name": "Presidente Alvear (iglesia del Pino)",
    "latitude": "28.13563600",
    "longitude": "-15.43043400"
  },
  {
    "id": "25",
    "name": "Eduardo Benot, frente 5",
    "latitude": "28.14202296",
    "longitude": "-15.43004693"
  },
  {
    "id": "26",
    "name": "Parque Santa Catalina",
    "latitude": "28.13996041",
    "longitude": "-15.43075225"
  },
  {
    "id": "27",
    "name": "Eduardo Benot, frente 23",
    "latitude": "28.14386799",
    "longitude": "-15.42982051"
  },
  {
    "id": "28",
    "name": "Albareda, 43",
    "latitude": "28.14506442",
    "longitude": "-15.43024039"
  },
  {
    "id": "29",
    "name": "Agustín Millares Sall (edificio Mapfre)",
    "latitude": "28.14789292",
    "longitude": "-15.42795076"
  },
  {
    "id": "30",
    "name": "Juan Rejón, 25",
    "latitude": "28.14880400",
    "longitude": "-15.42804790"
  },
  {
    "id": "31",
    "name": "Juan Rejón (Castillo de La Luz)",
    "latitude": "28.14917339",
    "longitude": "-15.42531031"
  },
  {
    "id": "33",
    "name": "Juan Rejón (frente Bomberos La Isleta)",
    "latitude": "28.15044470",
    "longitude": "-15.41905782"
  },
  {
    "id": "34",
    "name": "Juan Rejón, 67",
    "latitude": "28.14919242",
    "longitude": "-15.42595393"
  },
  {
    "id": "35",
    "name": "Av. Marítima del Sur (Juan XXIII)",
    "latitude": "28.12140300",
    "longitude": "-15.42387300"
  },
  {
    "id": "36",
    "name": "Av. de Canarias (San Telmo)",
    "latitude": "28.10894829",
    "longitude": "-15.41516552"
  },
  {
    "id": "37",
    "name": "Luis Doreste Silva, 50",
    "latitude": "28.11861697",
    "longitude": "-15.42349786"
  },
  {
    "id": "38",
    "name": "Alc. J. Ramírez Bethencourt (Centro Insular de Deportes)",
    "latitude": "28.11323916",
    "longitude": "-15.41716668"
  },
  {
    "id": "39",
    "name": "Juan XXIII (Clínica del Pino)",
    "latitude": "28.11881782",
    "longitude": "-15.42684385"
  },
  {
    "id": "40",
    "name": "Alc. J. Ramírez Bethencourt (Carvajal)",
    "latitude": "28.11853431",
    "longitude": "-15.42113872"
  },
  {
    "id": "41",
    "name": "Juan XXIII (colegio Canterbury)",
    "latitude": "28.11855292",
    "longitude": "-15.42852821"
  },
  {
    "id": "42",
    "name": "Dr. Waksman (pl. de La Feria)",
    "latitude": "28.11305890",
    "longitude": "-15.42033753"
  },
  {
    "id": "43",
    "name": "Párroco Villar Reina, 80 (barranquillo D. Zoilo)",
    "latitude": "28.11605880",
    "longitude": "-15.43140264"
  },
  {
    "id": "44",
    "name": "Pl. de la Constitución (Obelisco)",
    "latitude": "28.11190391",
    "longitude": "-15.42375682"
  },
  {
    "id": "45",
    "name": "Párroco Villar Reina, 154 (barranquillo D. Zoilo)",
    "latitude": "28.11392495",
    "longitude": "-15.43256131"
  },
  {
    "id": "46",
    "name": "Pérez del Toro, 13",
    "latitude": "28.11364800",
    "longitude": "-15.42511800"
  },
  {
    "id": "47",
    "name": "Carlos Mauricio Blandy (pl. Arucas)",
    "latitude": "28.11577356",
    "longitude": "-15.43421690"
  },
  {
    "id": "48",
    "name": "Pérez del Toro (pl. Dr. Juan Bosch Millares)",
    "latitude": "28.11720600",
    "longitude": "-15.42731100"
  },
  {
    "id": "49",
    "name": "Alm. Benítez Inglott, 12",
    "latitude": "28.11381018",
    "longitude": "-15.43610078"
  },
  {
    "id": "50",
    "name": "Párroco Villar Reina, 61 (barranquillo D. Zoilo)",
    "latitude": "28.11584638",
    "longitude": "-15.43155029"
  },
  {
    "id": "51",
    "name": "Alm. Benítez Inglott (C.S. Escaleritas)",
    "latitude": "28.11265500",
    "longitude": "-15.43800100"
  },
  {
    "id": "52",
    "name": "Párroco Matías Artiles",
    "latitude": "28.11304707",
    "longitude": "-15.43362124"
  },
  {
    "id": "53",
    "name": "Pintor Juan Ismael (Iglesia Redonda)",
    "latitude": "28.11052591",
    "longitude": "-15.43822118"
  },
  {
    "id": "54",
    "name": "Echegaray, 137",
    "latitude": "28.11460310",
    "longitude": "-15.43362667"
  },
  {
    "id": "55",
    "name": "Teobaldo Power, frente 51",
    "latitude": "28.10864065",
    "longitude": "-15.43974891"
  },
  {
    "id": "56",
    "name": "Henry Dunant, frente 10",
    "latitude": "28.11271420",
    "longitude": "-15.43530627"
  },
  {
    "id": "57",
    "name": "Av. Escaleritas, frente 111",
    "latitude": "28.10773256",
    "longitude": "-15.44022479"
  },
  {
    "id": "58",
    "name": "Presidente Alvear, 17",
    "latitude": "28.13508584",
    "longitude": "-15.43036942"
  },
  {
    "id": "59",
    "name": "Av. Escaleritas (urb. Sansofé)",
    "latitude": "28.10430731",
    "longitude": "-15.44098497"
  },
  {
    "id": "60",
    "name": "Deán Rodríguez Bolaños (pl. Alvarado y Saz)",
    "latitude": "28.11156399",
    "longitude": "-15.43705665"
  },
  {
    "id": "61",
    "name": "Av. Escaleritas (C.C. La Ballena)",
    "latitude": "28.10330515",
    "longitude": "-15.44378700"
  },
  {
    "id": "62",
    "name": "Teobaldo Power (Iglesia Redonda)",
    "latitude": "28.11056500",
    "longitude": "-15.43784300"
  },
  {
    "id": "63",
    "name": "Guillermo Santana Rivero, frente 1",
    "latitude": "28.10624643",
    "longitude": "-15.44412723"
  },
  {
    "id": "64",
    "name": "Mariucha, 139",
    "latitude": "28.10923400",
    "longitude": "-15.43786100"
  },
  {
    "id": "65",
    "name": "Guillermo Santana Rivero, frente 19",
    "latitude": "28.10892888",
    "longitude": "-15.44406615"
  },
  {
    "id": "66",
    "name": "Mariucha, 171",
    "latitude": "28.10720618",
    "longitude": "-15.43973353"
  },
  {
    "id": "67",
    "name": "Guillermo Santana Rivero, frente 33",
    "latitude": "28.11110696",
    "longitude": "-15.44365658"
  },
  {
    "id": "68",
    "name": "Av. Escaleritas (urb. Sansofé)",
    "latitude": "28.10406500",
    "longitude": "-15.44089800"
  },
  {
    "id": "69",
    "name": "Guillermo Santana Rivero",
    "latitude": "28.11314804",
    "longitude": "-15.44326333"
  },
  {
    "id": "70",
    "name": "Av. Escaleritas (C.C. La Ballena)",
    "latitude": "28.10280842",
    "longitude": "-15.44276678"
  },
  {
    "id": "71",
    "name": "Alcalde Díaz Saavedra Navarro (pl. Santa Isabel)",
    "latitude": "28.09702457",
    "longitude": "-15.41235983"
  },
  {
    "id": "72",
    "name": "Av. de La Feria (Infecar)",
    "latitude": "28.10657482",
    "longitude": "-15.44519928"
  },
  {
    "id": "73",
    "name": "Dr. Hernán Pérez de Grado, 6",
    "latitude": "28.09763545",
    "longitude": "-15.41554878"
  },
  {
    "id": "74",
    "name": "Diego Betancor Suárez, 19",
    "latitude": "28.10923171",
    "longitude": "-15.44557088"
  },
  {
    "id": "75",
    "name": "Dr. Hernán Pérez de Grado (La Portadilla)",
    "latitude": "28.09810802",
    "longitude": "-15.41754285"
  },
  {
    "id": "76",
    "name": "Diego Betancor Suárez, 39",
    "latitude": "28.11203572",
    "longitude": "-15.44494150"
  },
  {
    "id": "77",
    "name": "Blas Cabrera Felipe (Carrefour)",
    "latitude": "28.07183400",
    "longitude": "-15.41781700"
  },
  {
    "id": "78",
    "name": "Eufemiano Jurado (Juzgados)",
    "latitude": "28.09494749",
    "longitude": "-15.41372434"
  },
  {
    "id": "79",
    "name": "Pº San José (iglesia San José)",
    "latitude": "28.09500586",
    "longitude": "-15.41840827"
  },
  {
    "id": "80",
    "name": "Eufemiano Jurado, frente 32",
    "latitude": "28.09611170",
    "longitude": "-15.41711673"
  },
  {
    "id": "81",
    "name": "Pº San José, 170",
    "latitude": "28.09134919",
    "longitude": "-15.41918157"
  },
  {
    "id": "82",
    "name": "Pº San José (iglesia San José)",
    "latitude": "28.09473690",
    "longitude": "-15.41827361"
  },
  {
    "id": "83",
    "name": "Pº San José, 214",
    "latitude": "28.08977800",
    "longitude": "-15.41970000"
  },
  {
    "id": "84",
    "name": "Pº San José, frente 154",
    "latitude": "28.09182199",
    "longitude": "-15.41895511"
  },
  {
    "id": "85",
    "name": "Pº San José, 264",
    "latitude": "28.08819006",
    "longitude": "-15.42011429"
  },
  {
    "id": "86",
    "name": "Pº San José, frente 208",
    "latitude": "28.08991727",
    "longitude": "-15.41952462"
  },
  {
    "id": "87",
    "name": "Pº San José, 290",
    "latitude": "28.08597450",
    "longitude": "-15.41960777"
  },
  {
    "id": "88",
    "name": "Pº San José, frente 266",
    "latitude": "28.08823801",
    "longitude": "-15.41997393"
  },
  {
    "id": "89",
    "name": "Blas Cabrera Felipe (iglesia Sta. Clara)",
    "latitude": "28.08390900",
    "longitude": "-15.41926695"
  },
  {
    "id": "90",
    "name": "Pº San José, frente 298",
    "latitude": "28.08567589",
    "longitude": "-15.41899790"
  },
  {
    "id": "91",
    "name": "Marianao, 12",
    "latitude": "28.06361936",
    "longitude": "-15.42289487"
  },
  {
    "id": "92",
    "name": "Blas Cabrera Felipe, frente 306",
    "latitude": "28.08463518",
    "longitude": "-15.41905269"
  },
  {
    "id": "93",
    "name": "Blas Cabrera Felipe (parking hosp. Materno Insular)",
    "latitude": "28.08032414",
    "longitude": "-15.41840691"
  },
  {
    "id": "94",
    "name": "Blas Cabrera Felipe (iglesia Sta. Clara)",
    "latitude": "28.08202753",
    "longitude": "-15.41871995"
  },
  {
    "id": "95",
    "name": "Ciudad Deportiva Gran Canaria",
    "latitude": "28.07640340",
    "longitude": "-15.41732628"
  },
  {
    "id": "96",
    "name": "Blas Cabrera Felipe (parking hosp. Materno Insular)",
    "latitude": "28.08043842",
    "longitude": "-15.41829497"
  },
  {
    "id": "97",
    "name": "Blas Cabrera Felipe, 14",
    "latitude": "28.07446335",
    "longitude": "-15.41732327"
  },
  {
    "id": "98",
    "name": "Ciudad Deportiva Gran Canaria",
    "latitude": "28.07688791",
    "longitude": "-15.41736078"
  },
  {
    "id": "99",
    "name": "Párroco José C. Quintana, 8",
    "latitude": "28.06817299",
    "longitude": "-15.41780043"
  },
  {
    "id": "100",
    "name": "Blas Cabrera Felipe, frente 16",
    "latitude": "28.07450714",
    "longitude": "-15.41717853"
  },
  {
    "id": "101",
    "name": "Párroco José C. Quintana, 30",
    "latitude": "28.06698200",
    "longitude": "-15.41859700"
  },
  {
    "id": "102",
    "name": "Blas Cabrera Felipe (Carrefour)",
    "latitude": "28.07246374",
    "longitude": "-15.41753595"
  },
  {
    "id": "103",
    "name": "Párroco José C. Quintana, 46",
    "latitude": "28.06645119",
    "longitude": "-15.41981222"
  },
  {
    "id": "104",
    "name": "Párroco José C. Quintana, frente 8",
    "latitude": "28.06849384",
    "longitude": "-15.41779158"
  },
  {
    "id": "105",
    "name": "Miguel Martín Fernández de la Torre, 7",
    "latitude": "28.05780976",
    "longitude": "-15.44525532"
  },
  {
    "id": "106",
    "name": "Párroco José C. Quintana,  15",
    "latitude": "28.06726607",
    "longitude": "-15.41804542"
  },
  {
    "id": "107",
    "name": "Córdoba, 40",
    "latitude": "28.09290025",
    "longitude": "-15.41693040"
  },
  {
    "id": "108",
    "name": "Párroco José C. Quintana, 41",
    "latitude": "28.06675546",
    "longitude": "-15.41896862"
  },
  {
    "id": "109",
    "name": "Córdoba, frente 31",
    "latitude": "28.09073300",
    "longitude": "-15.41828000"
  },
  {
    "id": "110",
    "name": "Córdoba (Bomberos Vegueta)",
    "latitude": "28.09516036",
    "longitude": "-15.41510221"
  },
  {
    "id": "111",
    "name": "Aldea Blanca (Tanatorio San Miguel)",
    "latitude": "28.11298426",
    "longitude": "-15.45563387"
  },
  {
    "id": "113",
    "name": "Córdoba, frente 49",
    "latitude": "28.08798671",
    "longitude": "-15.41958822"
  },
  {
    "id": "114",
    "name": "Córdoba, 19",
    "latitude": "28.09374441",
    "longitude": "-15.41623797"
  },
  {
    "id": "115",
    "name": "Córdoba, 54",
    "latitude": "28.08596377",
    "longitude": "-15.41783781"
  },
  {
    "id": "116",
    "name": "Córdoba, 29",
    "latitude": "28.09082700",
    "longitude": "-15.41811200"
  },
  {
    "id": "117",
    "name": "Alicante (colegio Islas Canarias)",
    "latitude": "28.08527193",
    "longitude": "-15.41724806"
  },
  {
    "id": "118",
    "name": "Córdoba, 49",
    "latitude": "28.08812433",
    "longitude": "-15.41941941"
  },
  {
    "id": "119",
    "name": "Amurga (C.S. Cono Sur)",
    "latitude": "28.07649745",
    "longitude": "-15.41952378"
  },
  {
    "id": "120",
    "name": "Córdoba, 71",
    "latitude": "28.08606261",
    "longitude": "-15.41790526"
  },
  {
    "id": "121",
    "name": "Juan Carlos I, 10",
    "latitude": "28.11761598",
    "longitude": "-15.44585730"
  },
  {
    "id": "122",
    "name": "Alicante (colegio Islas Canarias)",
    "latitude": "28.08506061",
    "longitude": "-15.41715497"
  },
  {
    "id": "123",
    "name": "Juan Carlos I, 20",
    "latitude": "28.11539275",
    "longitude": "-15.44829707"
  },
  {
    "id": "124",
    "name": "Sargento Salom, 34",
    "latitude": "28.07273123",
    "longitude": "-15.41889047"
  },
  {
    "id": "125",
    "name": "Doctor Sventenius, frente 16",
    "latitude": "28.08313978",
    "longitude": "-15.41951119"
  },
  {
    "id": "126",
    "name": "Pedro Hidalgo, 35",
    "latitude": "28.07169292",
    "longitude": "-15.42081253"
  },
  {
    "id": "127",
    "name": "Doctor Sventenius, frente 2",
    "latitude": "28.08474506",
    "longitude": "-15.42017840"
  },
  {
    "id": "128",
    "name": "Pedro Hidalgo, 53",
    "latitude": "28.07140845",
    "longitude": "-15.42209208"
  },
  {
    "id": "129",
    "name": "Francisco Inglott Artiles, 6",
    "latitude": "28.08407550",
    "longitude": "-15.42051317"
  },
  {
    "id": "130",
    "name": "Debussy, 3",
    "latitude": "28.07273227",
    "longitude": "-15.42186143"
  },
  {
    "id": "131",
    "name": "Juan Sánchez de la Coba, 2",
    "latitude": "28.08280144",
    "longitude": "-15.41980818"
  },
  {
    "id": "132",
    "name": "Debussy, 9",
    "latitude": "28.07347930",
    "longitude": "-15.41973092"
  },
  {
    "id": "133",
    "name": "Sabino Berthelot, 6",
    "latitude": "28.07951312",
    "longitude": "-15.42076231"
  },
  {
    "id": "134",
    "name": "Debussy, frente 6",
    "latitude": "28.07400084",
    "longitude": "-15.41829179"
  },
  {
    "id": "135",
    "name": "Amurga (Casas Terreras El Lasso, 33)",
    "latitude": "28.07548206",
    "longitude": "-15.42624181"
  },
  {
    "id": "136",
    "name": "Anton Dvorak, 5",
    "latitude": "28.07420128",
    "longitude": "-15.41879348"
  },
  {
    "id": "137",
    "name": "Amurga (Casas Terreras El Lasso, 1)",
    "latitude": "28.07511577",
    "longitude": "-15.42768373"
  },
  {
    "id": "138",
    "name": "Juan Sebastian Bach, frente 4",
    "latitude": "28.07446831",
    "longitude": "-15.41934763"
  },
  {
    "id": "139",
    "name": "Amurga (El Lasso, bloque 5)",
    "latitude": "28.07542297",
    "longitude": "-15.42837513"
  },
  {
    "id": "140",
    "name": "Berlioz, 5",
    "latitude": "28.07447047",
    "longitude": "-15.42036034"
  },
  {
    "id": "141",
    "name": "Amurga (El Lasso, bloque 17)",
    "latitude": "28.07657200",
    "longitude": "-15.42673200"
  },
  {
    "id": "142",
    "name": "Schubert, frente 6",
    "latitude": "28.07489639",
    "longitude": "-15.41963144"
  },
  {
    "id": "143",
    "name": "Sargento Salom, 44",
    "latitude": "28.07277992",
    "longitude": "-15.41916151"
  },
  {
    "id": "144",
    "name": "Schubert, 5",
    "latitude": "28.07507170",
    "longitude": "-15.41969976"
  },
  {
    "id": "145",
    "name": "Pedro Hidalgo (polideportivo)",
    "latitude": "28.07167296",
    "longitude": "-15.42125089"
  },
  {
    "id": "146",
    "name": "Schubert, 17",
    "latitude": "28.07462943",
    "longitude": "-15.42112338"
  },
  {
    "id": "147",
    "name": "Pedro Hidalgo, frente 91",
    "latitude": "28.07160369",
    "longitude": "-15.42389192"
  },
  {
    "id": "148",
    "name": "Ctra. Lomo Blanco, 5",
    "latitude": "28.08330107",
    "longitude": "-15.44355460"
  },
  {
    "id": "149",
    "name": "San Cristóbal de La Laguna, frente 51",
    "latitude": "28.06969409",
    "longitude": "-15.42578950"
  },
  {
    "id": "150",
    "name": "Francisco Inglott Artiles, 19",
    "latitude": "28.08228104",
    "longitude": "-15.42013262"
  },
  {
    "id": "151",
    "name": "San Cristóbal de La Laguna, 96",
    "latitude": "28.06973519",
    "longitude": "-15.42767130"
  },
  {
    "id": "152",
    "name": "Francisco Inglott Artiles, 33",
    "latitude": "28.08047426",
    "longitude": "-15.42022347"
  },
  {
    "id": "153",
    "name": "San Cristóbal de La Laguna, frente 133",
    "latitude": "28.06919756",
    "longitude": "-15.42916429"
  },
  {
    "id": "154",
    "name": "Sabino Berthelot, 19",
    "latitude": "28.07930487",
    "longitude": "-15.42086947"
  },
  {
    "id": "155",
    "name": "San Cristóbal de La Laguna, 168",
    "latitude": "28.06821161",
    "longitude": "-15.43004553"
  },
  {
    "id": "156",
    "name": "Amurga (C.S. Cono Sur)",
    "latitude": "28.07635956",
    "longitude": "-15.41932988"
  },
  {
    "id": "157",
    "name": "Hoya de La Plata",
    "latitude": "28.06973169",
    "longitude": "-15.41814313"
  },
  {
    "id": "158",
    "name": "Amurga (Casas Terreras El Lasso, 33)",
    "latitude": "28.07534349",
    "longitude": "-15.42637528"
  },
  {
    "id": "159",
    "name": "Candelaria de Léon, 6",
    "latitude": "28.07032976",
    "longitude": "-15.41922959"
  },
  {
    "id": "160",
    "name": "Amurga (Casas Terreras El Lasso, 1)",
    "latitude": "28.07501805",
    "longitude": "-15.42727396"
  },
  {
    "id": "161",
    "name": "Farmacéutico Arencibia Cabrera (Cofarca)",
    "latitude": "28.08892502",
    "longitude": "-15.43340434"
  },
  {
    "id": "162",
    "name": "Amurga (El Lasso, bloque 4)",
    "latitude": "28.07540131",
    "longitude": "-15.42863953"
  },
  {
    "id": "163",
    "name": "Concejal Andrés Alvarado Janina (local social Hoya de La Plata)",
    "latitude": "28.06966982",
    "longitude": "-15.42126531"
  },
  {
    "id": "164",
    "name": "Amurga (El Lasso, bloque 17)",
    "latitude": "28.07665650",
    "longitude": "-15.42685481"
  },
  {
    "id": "165",
    "name": "Av. Marítima del Sur (hospital Materno Insular)",
    "latitude": "28.08112248",
    "longitude": "-15.41648922"
  },
  {
    "id": "166",
    "name": "Pedro Hidalgo, 97",
    "latitude": "28.07141122",
    "longitude": "-15.42409476"
  },
  {
    "id": "168",
    "name": "Salamanca, 63",
    "latitude": "28.06945039",
    "longitude": "-15.42517260"
  },
  {
    "id": "169",
    "name": "Arguineguín",
    "latitude": "28.10926667",
    "longitude": "-15.45698333"
  },
  {
    "id": "170",
    "name": "Salamanca, 99",
    "latitude": "28.06944533",
    "longitude": "-15.42645799"
  },
  {
    "id": "171",
    "name": "Reyes Católicos, 9",
    "latitude": "28.09987737",
    "longitude": "-15.41390051"
  },
  {
    "id": "172",
    "name": "Salamanca, 135",
    "latitude": "28.06880847",
    "longitude": "-15.42779444"
  },
  {
    "id": "173",
    "name": "Pintor Felo Monzón, 2",
    "latitude": "28.11157449",
    "longitude": "-15.45095811"
  },
  {
    "id": "174",
    "name": "Juan Carlos I, 9",
    "latitude": "28.11772515",
    "longitude": "-15.44528582"
  },
  {
    "id": "175",
    "name": "Nueva, frente 67",
    "latitude": "28.09583700",
    "longitude": "-15.43175200"
  },
  {
    "id": "176",
    "name": "Juan Carlos I, 23",
    "latitude": "28.11532128",
    "longitude": "-15.44790968"
  },
  {
    "id": "177",
    "name": "Andenes, frente 15",
    "latitude": "28.09851440",
    "longitude": "-15.42847137"
  },
  {
    "id": "178",
    "name": "Candelaria de León, 7",
    "latitude": "28.07017480",
    "longitude": "-15.41921664"
  },
  {
    "id": "179",
    "name": "Camino al Polvorín, 10",
    "latitude": "28.09524628",
    "longitude": "-15.42247002"
  },
  {
    "id": "180",
    "name": "Ctra. de San Lorenzo, frente 128",
    "latitude": "28.08805898",
    "longitude": "-15.47875223"
  },
  {
    "id": "181",
    "name": "Camino al Polvorín, 42",
    "latitude": "28.09608061",
    "longitude": "-15.42131482"
  },
  {
    "id": "182",
    "name": "Concejal Andrés Alvarado Janina (local social Hoya de La Plata)",
    "latitude": "28.06969261",
    "longitude": "-15.42102707"
  },
  {
    "id": "183",
    "name": "Camino al Polvorín (plaza del Sol Naciente)",
    "latitude": "28.09671206",
    "longitude": "-15.42018084"
  },
  {
    "id": "184",
    "name": "Residencial Flor Sirera",
    "latitude": "28.10850000",
    "longitude": "-15.46496667"
  },
  {
    "id": "185",
    "name": "Batería de San Juan, 16",
    "latitude": "28.09587312",
    "longitude": "-15.42076813"
  },
  {
    "id": "186",
    "name": "Pintor Felo Monzón, 1",
    "latitude": "28.11115869",
    "longitude": "-15.45070223"
  },
  {
    "id": "187",
    "name": "Batería de San Juan, 48",
    "latitude": "28.09465959",
    "longitude": "-15.42171466"
  },
  {
    "id": "188",
    "name": "Pintor Felo Monzón (Trópico)",
    "latitude": "28.10887583",
    "longitude": "-15.45123472"
  },
  {
    "id": "189",
    "name": "Real de S. Roque, frente 11",
    "latitude": "28.09829801",
    "longitude": "-15.42175218"
  },
  {
    "id": "190",
    "name": "Andenes, 9",
    "latitude": "28.09848032",
    "longitude": "-15.42799993"
  },
  {
    "id": "191",
    "name": "Farnesio, frente 15",
    "latitude": "28.09841900",
    "longitude": "-15.42438100"
  },
  {
    "id": "192",
    "name": "Néstor Álamo (campo de lucha)",
    "latitude": "28.10259747",
    "longitude": "-15.47141022"
  },
  {
    "id": "193",
    "name": "Farnesio, frente 59",
    "latitude": "28.09958437",
    "longitude": "-15.42596190"
  },
  {
    "id": "194",
    "name": "Ctra. del Cardón (rotonda)",
    "latitude": "28.11842316",
    "longitude": "-15.45322759"
  },
  {
    "id": "195",
    "name": "Fama, frente 85",
    "latitude": "28.09922864",
    "longitude": "-15.42649563"
  },
  {
    "id": "196",
    "name": "Juan XXIII (Clínica del Pino)",
    "latitude": "28.11900322",
    "longitude": "-15.42617075"
  },
  {
    "id": "197",
    "name": "Andenes, frente 39",
    "latitude": "28.09829686",
    "longitude": "-15.42986910"
  },
  {
    "id": "198",
    "name": "Real de San Juan (antigua cárcel)",
    "latitude": "28.09437614",
    "longitude": "-15.42371553"
  },
  {
    "id": "199",
    "name": "Nueva, frente 25",
    "latitude": "28.09734600",
    "longitude": "-15.43081700"
  },
  {
    "id": "200",
    "name": "Los Manzanos",
    "latitude": "28.09448740",
    "longitude": "-15.42325223"
  },
  {
    "id": "201",
    "name": "Barahona, 77",
    "latitude": "28.09461300",
    "longitude": "-15.43318700"
  },
  {
    "id": "202",
    "name": "Batería de San Juan",
    "latitude": "28.09383204",
    "longitude": "-15.42231542"
  },
  {
    "id": "203",
    "name": "Barahona, frente 19",
    "latitude": "28.09209137",
    "longitude": "-15.43392376"
  },
  {
    "id": "204",
    "name": "Juan de Quesada (Rectorado ULPGC)",
    "latitude": "28.09895037",
    "longitude": "-15.42066098"
  },
  {
    "id": "205",
    "name": "La Matula, frente 25",
    "latitude": "28.08951783",
    "longitude": "-15.43590940"
  },
  {
    "id": "206",
    "name": "Real de S. Roque, 13",
    "latitude": "28.09794471",
    "longitude": "-15.42157071"
  },
  {
    "id": "207",
    "name": "La Matula, frente 61",
    "latitude": "28.08785807",
    "longitude": "-15.43704975"
  },
  {
    "id": "208",
    "name": "Farnesio, 13",
    "latitude": "28.09830503",
    "longitude": "-15.42431882"
  },
  {
    "id": "209",
    "name": "La Matula, frente 95",
    "latitude": "28.08562695",
    "longitude": "-15.43885940"
  },
  {
    "id": "210",
    "name": "Farnesio, 53",
    "latitude": "28.09937855",
    "longitude": "-15.42584999"
  },
  {
    "id": "211",
    "name": "Puente La Matula",
    "latitude": "28.08269983",
    "longitude": "-15.44131138"
  },
  {
    "id": "212",
    "name": "Fama (Farnesio)",
    "latitude": "28.09860764",
    "longitude": "-15.42558984"
  },
  {
    "id": "213",
    "name": "Ctra. Lomo Blanco (Hermanos Toledo Suárez)",
    "latitude": "28.08476365",
    "longitude": "-15.44114342"
  },
  {
    "id": "214",
    "name": "Andenes, 19",
    "latitude": "28.09835596",
    "longitude": "-15.42926456"
  },
  {
    "id": "215",
    "name": "Ctra. Lomo Blanco (Lomo Verdejo)",
    "latitude": "28.08804474",
    "longitude": "-15.43917529"
  },
  {
    "id": "216",
    "name": "Nueva, 35",
    "latitude": "28.09697388",
    "longitude": "-15.43076313"
  },
  {
    "id": "217",
    "name": "Ctra. Lomo Blanco (Felipe Martel)",
    "latitude": "28.08389417",
    "longitude": "-15.44291923"
  },
  {
    "id": "218",
    "name": "Nueva, 77",
    "latitude": "28.09400375",
    "longitude": "-15.43350638"
  },
  {
    "id": "219",
    "name": "San José Artesano, 24",
    "latitude": "28.08487600",
    "longitude": "-15.44328500"
  },
  {
    "id": "220",
    "name": "Barahona, 19",
    "latitude": "28.09188242",
    "longitude": "-15.43396840"
  },
  {
    "id": "221",
    "name": "Real de San Juan, 62",
    "latitude": "28.09656541",
    "longitude": "-15.42167028"
  },
  {
    "id": "222",
    "name": "La Matula, 25",
    "latitude": "28.08947932",
    "longitude": "-15.43584948"
  },
  {
    "id": "223",
    "name": "Severo Ochoa",
    "latitude": "28.09582600",
    "longitude": "-15.42517400"
  },
  {
    "id": "224",
    "name": "La Matula, 65",
    "latitude": "28.08752210",
    "longitude": "-15.43708543"
  },
  {
    "id": "225",
    "name": "Severo Ochoa, 12",
    "latitude": "28.09505688",
    "longitude": "-15.42762499"
  },
  {
    "id": "226",
    "name": "La Matula, 97",
    "latitude": "28.08549651",
    "longitude": "-15.43879333"
  },
  {
    "id": "227",
    "name": "Severo Ochoa (George Pire)",
    "latitude": "28.09346836",
    "longitude": "-15.42944402"
  },
  {
    "id": "228",
    "name": "Aldea Blanca (Tanatorio San Miguel)",
    "latitude": "28.11290384",
    "longitude": "-15.45582994"
  },
  {
    "id": "229",
    "name": "Miguel Ángel Asturias, 5",
    "latitude": "28.09461700",
    "longitude": "-15.42926000"
  },
  {
    "id": "230",
    "name": "Ctra. Lomo Blanco (Puente La Matula)",
    "latitude": "28.08242384",
    "longitude": "-15.44206948"
  },
  {
    "id": "231",
    "name": "Miguel Ángel Asturias (iglesia El Batán)",
    "latitude": "28.09591245",
    "longitude": "-15.42859756"
  },
  {
    "id": "232",
    "name": "Ctra. Lomo Blanco (Hermanos Toledo Suárez)",
    "latitude": "28.08458284",
    "longitude": "-15.44121796"
  },
  {
    "id": "233",
    "name": "Párroco Segundo Vega, 116",
    "latitude": "28.09647167",
    "longitude": "-15.42866350"
  },
  {
    "id": "234",
    "name": "Ctra. Lomo Blanco (El Hornillo)",
    "latitude": "28.08778873",
    "longitude": "-15.43944946"
  },
  {
    "id": "235",
    "name": "Párroco Segundo Vega, frente 121",
    "latitude": "28.09563700",
    "longitude": "-15.42968700"
  },
  {
    "id": "236",
    "name": "Ctra. Lomo Blanco (Felipe Martel)",
    "latitude": "28.08400486",
    "longitude": "-15.44262072"
  },
  {
    "id": "237",
    "name": "Párroco Segundo Vega, 166",
    "latitude": "28.09462046",
    "longitude": "-15.43054291"
  },
  {
    "id": "238",
    "name": "Arguineguín, 8",
    "latitude": "28.10927187",
    "longitude": "-15.45713266"
  },
  {
    "id": "239",
    "name": "Párroco Segundo Vega, 220",
    "latitude": "28.09282100",
    "longitude": "-15.43222112"
  },
  {
    "id": "240",
    "name": "Ctra. del Centro (colegio S. Juan Bosco)",
    "latitude": "28.09762345",
    "longitude": "-15.42267793"
  },
  {
    "id": "241",
    "name": "Párroco Segundo Vega, 276",
    "latitude": "28.09059700",
    "longitude": "-15.43345600"
  },
  {
    "id": "242",
    "name": "Severo Ochoa, frente 10",
    "latitude": "28.09516712",
    "longitude": "-15.42739772"
  },
  {
    "id": "243",
    "name": "Primero de Mayo (Correos)",
    "latitude": "28.10619054",
    "longitude": "-15.42020565"
  },
  {
    "id": "244",
    "name": "Severo Ochoa (Albert Schwitzer)",
    "latitude": "28.09389805",
    "longitude": "-15.42872907"
  },
  {
    "id": "245",
    "name": "Ingeniero J. Bosch y Sintes, 1",
    "latitude": "28.10846881",
    "longitude": "-15.42105064"
  },
  {
    "id": "246",
    "name": "Severo Ochoa (George Bernard Shaw)",
    "latitude": "28.09281886",
    "longitude": "-15.42992348"
  },
  {
    "id": "247",
    "name": "Pl. de la Constitución (Obelisco)",
    "latitude": "28.11221231",
    "longitude": "-15.42332079"
  },
  {
    "id": "248",
    "name": "Miguel Ángel Asturias, frente 5",
    "latitude": "28.09461990",
    "longitude": "-15.42941181"
  },
  {
    "id": "249",
    "name": "Tomás Morales, frente 69",
    "latitude": "28.11500100",
    "longitude": "-15.42516200"
  },
  {
    "id": "250",
    "name": "Miguel Ángel Asturias (iglesia El Batán)",
    "latitude": "28.09554675",
    "longitude": "-15.42887539"
  },
  {
    "id": "251",
    "name": "Tomás Morales, 120",
    "latitude": "28.11704759",
    "longitude": "-15.42634139"
  },
  {
    "id": "252",
    "name": "Rotonda de Lomo Blanco",
    "latitude": "28.08319048",
    "longitude": "-15.44604656"
  },
  {
    "id": "253",
    "name": "Emilio Ley (piscinas Julio Navarro)",
    "latitude": "28.12150081",
    "longitude": "-15.43001198"
  },
  {
    "id": "254",
    "name": "Ernest Hemingway, 9",
    "latitude": "28.09517777",
    "longitude": "-15.42963935"
  },
  {
    "id": "255",
    "name": "Pío XII (colegio Teresiano)",
    "latitude": "28.12503134",
    "longitude": "-15.43219560"
  },
  {
    "id": "256",
    "name": "Ernest Hemingway, frente 132",
    "latitude": "28.09344848",
    "longitude": "-15.43113534"
  },
  {
    "id": "257",
    "name": "Pío XII (Estadio Insular)",
    "latitude": "28.12885545",
    "longitude": "-15.43292133"
  },
  {
    "id": "258",
    "name": "Ernest Hemingway (colegio El Batán)",
    "latitude": "28.09206949",
    "longitude": "-15.43252514"
  },
  {
    "id": "259",
    "name": "Galicia (Mercado Central)",
    "latitude": "28.13367212",
    "longitude": "-15.43309802"
  },
  {
    "id": "260",
    "name": "Farmacéutico Arencibia Cabrera (Cofarca)",
    "latitude": "28.08910679",
    "longitude": "-15.43316805"
  },
  {
    "id": "261",
    "name": "Galicia, 32",
    "latitude": "28.13519200",
    "longitude": "-15.43325600"
  },
  {
    "id": "262",
    "name": "Primero de Mayo, 35",
    "latitude": "28.10650155",
    "longitude": "-15.42054416"
  },
  {
    "id": "263",
    "name": "Tomás Miller, frente 31",
    "latitude": "28.13749700",
    "longitude": "-15.43343400"
  },
  {
    "id": "264",
    "name": "Tomás Morales, 5",
    "latitude": "28.10825951",
    "longitude": "-15.42072048"
  },
  {
    "id": "265",
    "name": "Luján Pérez, 20",
    "latitude": "28.14956689",
    "longitude": "-15.42961659"
  },
  {
    "id": "266",
    "name": "Emilio Ley (parque Doramas)",
    "latitude": "28.12133333",
    "longitude": "-15.43002611"
  },
  {
    "id": "267",
    "name": "Luján Pérez, 66",
    "latitude": "28.15118931",
    "longitude": "-15.42995522"
  },
  {
    "id": "268",
    "name": "Primero de Mayo, 1",
    "latitude": "28.10257913",
    "longitude": "-15.41782395"
  },
  {
    "id": "269",
    "name": "Tinguaro, 18",
    "latitude": "28.15313212",
    "longitude": "-15.42930192"
  },
  {
    "id": "270",
    "name": "Pío XII (colegio Teresiano)",
    "latitude": "28.12526500",
    "longitude": "-15.43244192"
  },
  {
    "id": "271",
    "name": "Gumidafe, 30",
    "latitude": "28.15266359",
    "longitude": "-15.42790479"
  },
  {
    "id": "272",
    "name": "Pío XII (Estadio Insular)",
    "latitude": "28.12810555",
    "longitude": "-15.43300823"
  },
  {
    "id": "273",
    "name": "Osorio, 28",
    "latitude": "28.15272573",
    "longitude": "-15.42627959"
  },
  {
    "id": "274",
    "name": "Pío XII, 75",
    "latitude": "28.13118786",
    "longitude": "-15.43299830"
  },
  {
    "id": "275",
    "name": "Osorio, 58",
    "latitude": "28.15258677",
    "longitude": "-15.42466660"
  },
  {
    "id": "276",
    "name": "Galicia (Mercado Central)",
    "latitude": "28.13324527",
    "longitude": "-15.43320134"
  },
  {
    "id": "277",
    "name": "Felipe Martel (Lindero)",
    "latitude": "28.08571029",
    "longitude": "-15.44230470"
  },
  {
    "id": "278",
    "name": "Bandama, 25",
    "latitude": "28.15441694",
    "longitude": "-15.42509488"
  },
  {
    "id": "279",
    "name": "Primero de Mayo, 56",
    "latitude": "28.10589824",
    "longitude": "-15.41997860"
  },
  {
    "id": "281",
    "name": "Ctra. de Mata (pl. del Pino)",
    "latitude": "28.10778626",
    "longitude": "-15.42188017"
  },
  {
    "id": "282",
    "name": "Albareda (Mercado del Puerto)",
    "latitude": "28.14800199",
    "longitude": "-15.42933638"
  },
  {
    "id": "283",
    "name": "Ctra. de Mata (San Antonio)",
    "latitude": "28.10701192",
    "longitude": "-15.42324324"
  },
  {
    "id": "284",
    "name": "Faro, 11",
    "latitude": "28.14893104",
    "longitude": "-15.43031036"
  },
  {
    "id": "285",
    "name": "Pº San Antonio (López Orduña)",
    "latitude": "28.11223200",
    "longitude": "-15.42741900"
  },
  {
    "id": "286",
    "name": "Faro, 43",
    "latitude": "28.15062150",
    "longitude": "-15.43064643"
  },
  {
    "id": "287",
    "name": "Pº San Antonio, 56",
    "latitude": "28.11380749",
    "longitude": "-15.42851541"
  },
  {
    "id": "288",
    "name": "Faro, 99",
    "latitude": "28.15299552",
    "longitude": "-15.43081932"
  },
  {
    "id": "289",
    "name": "Mariucha (plaza Don Benito)",
    "latitude": "28.11333180",
    "longitude": "-15.43034204"
  },
  {
    "id": "290",
    "name": "Coronel Rocha (Nueva Isleta)",
    "latitude": "28.15538700",
    "longitude": "-15.43076400"
  },
  {
    "id": "291",
    "name": "Don Pedro Infinito, 24",
    "latitude": "28.11040879",
    "longitude": "-15.43102190"
  },
  {
    "id": "292",
    "name": "Eduardo Peñate Santana, local 4",
    "latitude": "28.15446770",
    "longitude": "-15.42695659"
  },
  {
    "id": "293",
    "name": "Zaragoza, 26",
    "latitude": "28.11115662",
    "longitude": "-15.43283535"
  },
  {
    "id": "294",
    "name": "Palmar, frente 82",
    "latitude": "28.15333890",
    "longitude": "-15.42361987"
  },
  {
    "id": "295",
    "name": "Obispo Romo, frente 27",
    "latitude": "28.11553947",
    "longitude": "-15.43583927"
  },
  {
    "id": "296",
    "name": "Ctra. de San Lorenzo, frente 172",
    "latitude": "28.08403540",
    "longitude": "-15.47825150"
  },
  {
    "id": "297",
    "name": "Av. Escaleritas, 51",
    "latitude": "28.11859463",
    "longitude": "-15.43707899"
  },
  {
    "id": "298",
    "name": "Ctra. de San Lorenzo, frente 186",
    "latitude": "28.08161667",
    "longitude": "-15.47806667"
  },
  {
    "id": "299",
    "name": "Av. Escaleritas (Cáritas)",
    "latitude": "28.12080612",
    "longitude": "-15.43648968"
  },
  {
    "id": "300",
    "name": "Don Pedro Infinito (iglesia Los Dolores)",
    "latitude": "28.11232600",
    "longitude": "-15.42906100"
  },
  {
    "id": "301",
    "name": "Av. Escaleritas (club La Cornisa)",
    "latitude": "28.12305500",
    "longitude": "-15.43593238"
  },
  {
    "id": "302",
    "name": "Alceste, 27",
    "latitude": "28.11021527",
    "longitude": "-15.43084876"
  },
  {
    "id": "303",
    "name": "Pº de Chil (Estadio Insular)",
    "latitude": "28.12946569",
    "longitude": "-15.43483307"
  },
  {
    "id": "304",
    "name": "Zaragoza, 27",
    "latitude": "28.11105065",
    "longitude": "-15.43291169"
  },
  {
    "id": "305",
    "name": "Concepción Arenal (pl. de España)",
    "latitude": "28.13373530",
    "longitude": "-15.43499338"
  },
  {
    "id": "306",
    "name": "Obispo Romo (Mercado de Altavista)",
    "latitude": "28.11460707",
    "longitude": "-15.43536960"
  },
  {
    "id": "308",
    "name": "Obispo Romo (parque Hermanos Millares)",
    "latitude": "28.11685100",
    "longitude": "-15.43704600"
  },
  {
    "id": "310",
    "name": "Av. Escaleritas, 48",
    "latitude": "28.12168789",
    "longitude": "-15.43650679"
  },
  {
    "id": "311",
    "name": "Tomás Miller (playa de Las Canteras)",
    "latitude": "28.14154060",
    "longitude": "-15.43373622"
  },
  {
    "id": "312",
    "name": "Pº de Chil (Estadio Insular)",
    "latitude": "28.12817245",
    "longitude": "-15.43540648"
  },
  {
    "id": "313",
    "name": "Alfredo L. Jones, 1",
    "latitude": "28.14218938",
    "longitude": "-15.43026002"
  },
  {
    "id": "314",
    "name": "Olof Palme, 40",
    "latitude": "28.13333629",
    "longitude": "-15.43560616"
  },
  {
    "id": "315",
    "name": "Farmacéutico Pedro Rivero (Polígono Cruz de Piedra)",
    "latitude": "28.10202434",
    "longitude": "-15.43948537"
  },
  {
    "id": "316",
    "name": "Juan Manuel Durán González, 40",
    "latitude": "28.13526596",
    "longitude": "-15.43549560"
  },
  {
    "id": "317",
    "name": "Ctra. de Mata, 42",
    "latitude": "28.10614700",
    "longitude": "-15.42475300"
  },
  {
    "id": "318",
    "name": "Ignacio Pérez Galdós (Castillo de Mata)",
    "latitude": "28.10659905",
    "longitude": "-15.42246044"
  },
  {
    "id": "319",
    "name": "Ctra. de Mata (parque de Las Rehoyas)",
    "latitude": "28.10619291",
    "longitude": "-15.42841554"
  },
  {
    "id": "320",
    "name": "Calzada Lateral del Norte (Divina Pastora)",
    "latitude": "28.10568018",
    "longitude": "-15.42711183"
  },
  {
    "id": "321",
    "name": "Ctra. del Norte, 14",
    "latitude": "28.10563952",
    "longitude": "-15.43214646"
  },
  {
    "id": "322",
    "name": "Calzada Lateral del Norte (C.S. Miller Bajo)",
    "latitude": "28.10471823",
    "longitude": "-15.43254494"
  },
  {
    "id": "323",
    "name": "Ctra. del Norte, 30",
    "latitude": "28.10451564",
    "longitude": "-15.43326697"
  },
  {
    "id": "324",
    "name": "Virgen de La Paloma, frente 19",
    "latitude": "28.10539609",
    "longitude": "-15.43450542"
  },
  {
    "id": "325",
    "name": "Sta. Luisa de Marillac, 43",
    "latitude": "28.10585500",
    "longitude": "-15.43399900"
  },
  {
    "id": "326",
    "name": "Virgen de La Paloma (iglesia de La Paz)",
    "latitude": "28.10687535",
    "longitude": "-15.43405284"
  },
  {
    "id": "327",
    "name": "Sta. Luisa de Marillac (pl. Martín Cobos)",
    "latitude": "28.10721623",
    "longitude": "-15.43320084"
  },
  {
    "id": "328",
    "name": "Don Pedro Infinito, 54",
    "latitude": "28.10967636",
    "longitude": "-15.43237290"
  },
  {
    "id": "329",
    "name": "Sta. Luisa de Marillac (Bingo Cinema)",
    "latitude": "28.10966293",
    "longitude": "-15.43062645"
  },
  {
    "id": "330",
    "name": "Juan Saraza Ortiz, frente 7",
    "latitude": "28.10326461",
    "longitude": "-15.43232676"
  },
  {
    "id": "331",
    "name": "Juan Saraza Ortiz, 14",
    "latitude": "28.10318122",
    "longitude": "-15.43268188"
  },
  {
    "id": "332",
    "name": "Cruz de Piedra, 9",
    "latitude": "28.10293172",
    "longitude": "-15.43062065"
  },
  {
    "id": "333",
    "name": "Cruz de Piedra, frente 7",
    "latitude": "28.10314688",
    "longitude": "-15.43046581"
  },
  {
    "id": "334",
    "name": "Carmen Quintana, 1",
    "latitude": "28.10222300",
    "longitude": "-15.43201100"
  },
  {
    "id": "335",
    "name": "Carmen Quintana, frente 1",
    "latitude": "28.10226217",
    "longitude": "-15.43211517"
  },
  {
    "id": "336",
    "name": "Carmen Quintana, 33",
    "latitude": "28.10144835",
    "longitude": "-15.43394440"
  },
  {
    "id": "337",
    "name": "Carmen Quintana, frente 35",
    "latitude": "28.10151622",
    "longitude": "-15.43398566"
  },
  {
    "id": "338",
    "name": "Carmen Quintana, 71",
    "latitude": "28.09997865",
    "longitude": "-15.43485403"
  },
  {
    "id": "339",
    "name": "Carmen Quintana, frente 73",
    "latitude": "28.10005500",
    "longitude": "-15.43491200"
  },
  {
    "id": "340",
    "name": "Pino Apolinario, 9",
    "latitude": "28.09846080",
    "longitude": "-15.43512848"
  },
  {
    "id": "341",
    "name": "Ana Benítez, frente 92",
    "latitude": "28.09857019",
    "longitude": "-15.43566480"
  },
  {
    "id": "342",
    "name": "Pino Apolinario, 53",
    "latitude": "28.09742072",
    "longitude": "-15.43678432"
  },
  {
    "id": "343",
    "name": "Ana Benítez, frente 42",
    "latitude": "28.09792685",
    "longitude": "-15.43818058"
  },
  {
    "id": "344",
    "name": "Párroco Segundo Vega, frente 238",
    "latitude": "28.09212897",
    "longitude": "-15.43261084"
  },
  {
    "id": "345",
    "name": "Ana Benítez, 7",
    "latitude": "28.09673512",
    "longitude": "-15.43906161"
  },
  {
    "id": "346",
    "name": "Ctra. de San Lorenzo (barranco)",
    "latitude": "28.07704002",
    "longitude": "-15.47888710"
  },
  {
    "id": "347",
    "name": "Pintor Felo Monzón (Bambú)",
    "latitude": "28.10889861",
    "longitude": "-15.45157945"
  },
  {
    "id": "348",
    "name": "Real del Castillo",
    "latitude": "28.10379245",
    "longitude": "-15.42874764"
  },
  {
    "id": "349",
    "name": "Pepe Dámaso, 32",
    "latitude": "28.09977845",
    "longitude": "-15.47786496"
  },
  {
    "id": "350",
    "name": "Real del Castillo, 117",
    "latitude": "28.10182838",
    "longitude": "-15.42342893"
  },
  {
    "id": "351",
    "name": "Gobernador Marín Acuña (Real del Castillo)",
    "latitude": "28.10370053",
    "longitude": "-15.42868714"
  },
  {
    "id": "352",
    "name": "Farmacéutico Pedro Rivero, 1",
    "latitude": "28.10202500",
    "longitude": "-15.43965100"
  },
  {
    "id": "353",
    "name": "Gobernador Marín Acuña, 50",
    "latitude": "28.10347084",
    "longitude": "-15.42559203"
  },
  {
    "id": "355",
    "name": "Gobernador Marín Acuña, 24",
    "latitude": "28.10247257",
    "longitude": "-15.42409827"
  },
  {
    "id": "356",
    "name": "Farmacéutico Pedro Rivero (Joaquín Belón)",
    "latitude": "28.10441357",
    "longitude": "-15.43709900"
  },
  {
    "id": "357",
    "name": "Juan Carlos I (hospital Dr. Negrín)",
    "latitude": "28.11892357",
    "longitude": "-15.44438518"
  },
  {
    "id": "359",
    "name": "Farmacéutico Pedro Rivero, 20",
    "latitude": "28.10454731",
    "longitude": "-15.43637613"
  },
  {
    "id": "360",
    "name": "Agustina de Aragón, 67",
    "latitude": "28.10784866",
    "longitude": "-15.43466335"
  },
  {
    "id": "361",
    "name": "Benecharo (La Naval)",
    "latitude": "28.15005752",
    "longitude": "-15.42390665"
  },
  {
    "id": "362",
    "name": "Agustina de Aragón, 145",
    "latitude": "28.10626085",
    "longitude": "-15.43760978"
  },
  {
    "id": "363",
    "name": "Don Pedro Infinito, 120",
    "latitude": "28.10844300",
    "longitude": "-15.43469500"
  },
  {
    "id": "364",
    "name": "Agustina de Aragón (iglesia San Marcos)",
    "latitude": "28.10548794",
    "longitude": "-15.43923615"
  },
  {
    "id": "365",
    "name": "Don Pedro Infinito, 152",
    "latitude": "28.10767575",
    "longitude": "-15.43613000"
  },
  {
    "id": "366",
    "name": "Av. Escaleritas, 114",
    "latitude": "28.10983953",
    "longitude": "-15.43983806"
  },
  {
    "id": "367",
    "name": "Don Pedro Infinito, 194",
    "latitude": "28.10659205",
    "longitude": "-15.43822767"
  },
  {
    "id": "368",
    "name": "Av. Escaleritas, 104",
    "latitude": "28.11250400",
    "longitude": "-15.43920900"
  },
  {
    "id": "369",
    "name": "Don Pedro Infinito, 204",
    "latitude": "28.10592524",
    "longitude": "-15.43969466"
  },
  {
    "id": "370",
    "name": "Av. Escaleritas, 84",
    "latitude": "28.11484751",
    "longitude": "-15.43853624"
  },
  {
    "id": "371",
    "name": "Av. Escaleritas, 109",
    "latitude": "28.10765500",
    "longitude": "-15.44002200"
  },
  {
    "id": "372",
    "name": "Av. Escaleritas, 70",
    "latitude": "28.11791700",
    "longitude": "-15.43750000"
  },
  {
    "id": "373",
    "name": "Av. Escaleritas, 95",
    "latitude": "28.11011061",
    "longitude": "-15.43956023"
  },
  {
    "id": "374",
    "name": "Ctra. del Norte (IES Cruz de Piedra)",
    "latitude": "28.10250537",
    "longitude": "-15.43684270"
  },
  {
    "id": "375",
    "name": "Av. Escaleritas, 79",
    "latitude": "28.11276772",
    "longitude": "-15.43892124"
  },
  {
    "id": "376",
    "name": "Ctra. del Norte (frente C.C. La Ballena)",
    "latitude": "28.09995008",
    "longitude": "-15.44217682"
  },
  {
    "id": "377",
    "name": "Av. Escaleritas, 57",
    "latitude": "28.11480300",
    "longitude": "-15.43831500"
  },
  {
    "id": "378",
    "name": "Manuel de Falla (salida de La Paterna)",
    "latitude": "28.09683443",
    "longitude": "-15.44746392"
  },
  {
    "id": "379",
    "name": "Ctra. del Norte, 40",
    "latitude": "28.10379400",
    "longitude": "-15.43417300"
  },
  {
    "id": "380",
    "name": "Ctra. del Norte (C.C. La Ballena)",
    "latitude": "28.10023576",
    "longitude": "-15.44269511"
  },
  {
    "id": "381",
    "name": "Ctra. del Norte, 68",
    "latitude": "28.10219264",
    "longitude": "-15.43799181"
  },
  {
    "id": "382",
    "name": "Ctra. de San Lorenzo, 383",
    "latitude": "28.07877087",
    "longitude": "-15.46436433"
  },
  {
    "id": "384",
    "name": "Henry Dunant, frente 42",
    "latitude": "28.11153400",
    "longitude": "-15.43731800"
  },
  {
    "id": "385",
    "name": "Ctra. del Norte (Los Tarahales)",
    "latitude": "28.09817151",
    "longitude": "-15.44707158"
  },
  {
    "id": "386",
    "name": "Cronista Martín Moreno, 8",
    "latitude": "28.09692058",
    "longitude": "-15.44439660"
  },
  {
    "id": "387",
    "name": "Acceso Manuel de Falla",
    "latitude": "28.09668618",
    "longitude": "-15.44789220"
  },
  {
    "id": "388",
    "name": "Pepe Dámaso, 43",
    "latitude": "28.09966983",
    "longitude": "-15.47757964"
  },
  {
    "id": "389",
    "name": "Manuel de Falla, frente 118",
    "latitude": "28.09682659",
    "longitude": "-15.44650644"
  },
  {
    "id": "390",
    "name": "Ctra. del Norte, 234",
    "latitude": "28.09755340",
    "longitude": "-15.44857700"
  },
  {
    "id": "391",
    "name": "Manuel de Falla, frente 11",
    "latitude": "28.09471138",
    "longitude": "-15.44703379"
  },
  {
    "id": "392",
    "name": "Av. Escaleritas, 169",
    "latitude": "28.09961686",
    "longitude": "-15.44820850"
  },
  {
    "id": "393",
    "name": "Manuel de Falla, frente 84",
    "latitude": "28.09376748",
    "longitude": "-15.44771361"
  },
  {
    "id": "394",
    "name": "Av. Escaleritas (urb. Parque Central)",
    "latitude": "28.10160327",
    "longitude": "-15.44635541"
  },
  {
    "id": "395",
    "name": "Manuel de Falla, frente 72",
    "latitude": "28.09204925",
    "longitude": "-15.44866234"
  },
  {
    "id": "396",
    "name": "Néstor de la Torre (Mercado Central)",
    "latitude": "28.13387101",
    "longitude": "-15.43231803"
  },
  {
    "id": "397",
    "name": "Emilio Arrieta, frente 7",
    "latitude": "28.09443851",
    "longitude": "-15.44963731"
  },
  {
    "id": "398",
    "name": "Mesa y López (C.S. Alcaravaneras)",
    "latitude": "28.13355997",
    "longitude": "-15.43605426"
  },
  {
    "id": "399",
    "name": "Ctra. del Norte (Los Tarahales)",
    "latitude": "28.09703875",
    "longitude": "-15.44800104"
  },
  {
    "id": "400",
    "name": "Mesa y López (Madera y Corcho)",
    "latitude": "28.13146244",
    "longitude": "-15.43860728"
  },
  {
    "id": "401",
    "name": "Av. Escaleritas, 178",
    "latitude": "28.10043835",
    "longitude": "-15.44779524"
  },
  {
    "id": "402",
    "name": "Costa Rica, frente 33",
    "latitude": "28.13057562",
    "longitude": "-15.44015525"
  },
  {
    "id": "403",
    "name": "Juan Carlos I, 50",
    "latitude": "28.11319800",
    "longitude": "-15.45011000"
  },
  {
    "id": "404",
    "name": "Juan Carlos I (C.C. Las Ramblas)",
    "latitude": "28.11376850",
    "longitude": "-15.44927462"
  },
  {
    "id": "405",
    "name": "Ctra. del Norte, 225",
    "latitude": "28.09781972",
    "longitude": "-15.44864853"
  },
  {
    "id": "406",
    "name": "Castillejos, 23",
    "latitude": "28.12993446",
    "longitude": "-15.44268981"
  },
  {
    "id": "407",
    "name": "Ind. José Sánchez Peñate (C.C. Las Arenas)",
    "latitude": "28.12836942",
    "longitude": "-15.44727828"
  },
  {
    "id": "408",
    "name": "Castillejos, 71",
    "latitude": "28.12824465",
    "longitude": "-15.44480135"
  },
  {
    "id": "409",
    "name": "Mesa y López (C.S. Alcaravaneras)",
    "latitude": "28.13359792",
    "longitude": "-15.43633527"
  },
  {
    "id": "410",
    "name": "Numancia, 68",
    "latitude": "28.13034744",
    "longitude": "-15.44549834"
  },
  {
    "id": "411",
    "name": "Mesa y López (Madera y Corcho)",
    "latitude": "28.13188393",
    "longitude": "-15.43845010"
  },
  {
    "id": "412",
    "name": "Pl. de San Lorenzo",
    "latitude": "28.07613727",
    "longitude": "-15.47631371"
  },
  {
    "id": "413",
    "name": "Fernando Guanarteme, 118",
    "latitude": "28.13247544",
    "longitude": "-15.44074408"
  },
  {
    "id": "414",
    "name": "María Dolorosa, 1",
    "latitude": "28.16460815",
    "longitude": "-15.43425559"
  },
  {
    "id": "415",
    "name": "Simancas, 70",
    "latitude": "28.12976843",
    "longitude": "-15.44406523"
  },
  {
    "id": "416",
    "name": "Ctra. de San Lorenzo, frente 282",
    "latitude": "28.07578207",
    "longitude": "-15.47401197"
  },
  {
    "id": "417",
    "name": "Pérez Muñoz, 34",
    "latitude": "28.14995330",
    "longitude": "-15.42700365"
  },
  {
    "id": "418",
    "name": "L. Suárez Rivero, 9",
    "latitude": "28.07624321",
    "longitude": "-15.47270363"
  },
  {
    "id": "419",
    "name": "Pérez Muñoz, 78",
    "latitude": "28.15159796",
    "longitude": "-15.42737760"
  },
  {
    "id": "420",
    "name": "Vega de Río Palma, 48",
    "latitude": "28.07365000",
    "longitude": "-15.46800000"
  },
  {
    "id": "421",
    "name": "Pérez Muñoz, 100",
    "latitude": "28.15289311",
    "longitude": "-15.42765421"
  },
  {
    "id": "422",
    "name": "Camilo Martinón Navarro, 52",
    "latitude": "28.07471091",
    "longitude": "-15.46515619"
  },
  {
    "id": "423",
    "name": "Auditorio",
    "latitude": "28.12971272",
    "longitude": "-15.44755935"
  },
  {
    "id": "424",
    "name": "San Andrés, 28",
    "latitude": "28.09533035",
    "longitude": "-15.48173436"
  },
  {
    "id": "426",
    "name": "San Fermín, 20",
    "latitude": "28.09465235",
    "longitude": "-15.48335249"
  },
  {
    "id": "427",
    "name": "Parque Santa Catalina",
    "latitude": "28.14032572",
    "longitude": "-15.43078623"
  },
  {
    "id": "428",
    "name": "Galilea, 20",
    "latitude": "28.09293096",
    "longitude": "-15.48559476"
  },
  {
    "id": "429",
    "name": "Parque Santa Catalina",
    "latitude": "28.14065106",
    "longitude": "-15.43080396"
  },
  {
    "id": "430",
    "name": "Camilo Martinón Navarro, 30",
    "latitude": "28.07477489",
    "longitude": "-15.46373875"
  },
  {
    "id": "431",
    "name": "Real de San Juan, 2",
    "latitude": "28.09873337",
    "longitude": "-15.41775943"
  },
  {
    "id": "432",
    "name": "Carretera de San Lorenzo, frente 230",
    "latitude": "28.07681437",
    "longitude": "-15.47807658"
  },
  {
    "id": "433",
    "name": "Real de San Juan, 14",
    "latitude": "28.09838024",
    "longitude": "-15.41940149"
  },
  {
    "id": "434",
    "name": "Juan Sánchez de la Coba, 16",
    "latitude": "28.08093990",
    "longitude": "-15.41967693"
  },
  {
    "id": "435",
    "name": "Real de San Juan, frente 89",
    "latitude": "28.09770084",
    "longitude": "-15.42052588"
  },
  {
    "id": "436",
    "name": "Ctra. del Centro (Barranco Seco)",
    "latitude": "28.09412800",
    "longitude": "-15.42466300"
  },
  {
    "id": "437",
    "name": "Mesa y López, 86",
    "latitude": "28.13008803",
    "longitude": "-15.44059819"
  },
  {
    "id": "438",
    "name": "Severo Ochoa (C.S. El Batán)",
    "latitude": "28.09570028",
    "longitude": "-15.42524570"
  },
  {
    "id": "439",
    "name": "Ind. José Sánchez Peñate (C.C. Las Arenas)",
    "latitude": "28.12804445",
    "longitude": "-15.44695504"
  },
  {
    "id": "440",
    "name": "José Luis Guerra de Armas (cruce de Las Coloradas)",
    "latitude": "28.15507903",
    "longitude": "-15.42960237"
  },
  {
    "id": "441",
    "name": "León y Castillo (club Náutico)",
    "latitude": "28.13286013",
    "longitude": "-15.42957828"
  },
  {
    "id": "442",
    "name": "Cruz del Ovejero, 28",
    "latitude": "28.09851349",
    "longitude": "-15.47743023"
  },
  {
    "id": "444",
    "name": "Ctra. Gral. Tamaraceite, 172",
    "latitude": "28.09820212",
    "longitude": "-15.47506598"
  },
  {
    "id": "445",
    "name": "Ciudad Deportiva Gran Canaria",
    "latitude": "28.07690029",
    "longitude": "-15.41727242"
  },
  {
    "id": "446",
    "name": "Ctra. Gral. Tamaraceite, 140",
    "latitude": "28.09681726",
    "longitude": "-15.47366362"
  },
  {
    "id": "447",
    "name": "Amurga (Casablanca)",
    "latitude": "28.07575109",
    "longitude": "-15.41892348"
  },
  {
    "id": "449",
    "name": "Sabino Berthelot (Pº Blas Cabrera Felipe)",
    "latitude": "28.07990480",
    "longitude": "-15.41839898"
  },
  {
    "id": "450",
    "name": "Ctra. de Tamaraceite (rotonda Lomo Los Frailes)",
    "latitude": "28.09680900",
    "longitude": "-15.46694000"
  },
  {
    "id": "451",
    "name": "Dr. Sventenius",
    "latitude": "28.08093765",
    "longitude": "-15.41865902"
  },
  {
    "id": "452",
    "name": "Ctra. de Tamaraceite (urb. La Guillena)",
    "latitude": "28.09596900",
    "longitude": "-15.46249700"
  },
  {
    "id": "453",
    "name": "León XIII",
    "latitude": "28.10657983",
    "longitude": "-15.42540633"
  },
  {
    "id": "454",
    "name": "Mimosa (Gardenia)",
    "latitude": "28.11515937",
    "longitude": "-15.45042666"
  },
  {
    "id": "455",
    "name": "San Cristóbal de La Laguna, 196",
    "latitude": "28.06733920",
    "longitude": "-15.43055699"
  },
  {
    "id": "456",
    "name": "Ctra. de Tamaraceite, frente 71",
    "latitude": "28.09820291",
    "longitude": "-15.46199721"
  },
  {
    "id": "457",
    "name": "José Luis Guerra de Armas (Alonso Quijano)",
    "latitude": "28.15457010",
    "longitude": "-15.42824975"
  },
  {
    "id": "458",
    "name": "Ctra. de Tamaraceite (Las Perreras)",
    "latitude": "28.10340273",
    "longitude": "-15.46209377"
  },
  {
    "id": "459",
    "name": "Cruz del Ovejero, 25",
    "latitude": "28.09845968",
    "longitude": "-15.47722238"
  },
  {
    "id": "460",
    "name": "Ctra. de Tamaraceite, frente 21",
    "latitude": "28.10656704",
    "longitude": "-15.46064323"
  },
  {
    "id": "461",
    "name": "Ctra. de Tamaraceite, 171",
    "latitude": "28.09797373",
    "longitude": "-15.47495281"
  },
  {
    "id": "462",
    "name": "Ctra. de Tamaraceite (urb. ind. Lomo Blanco)",
    "latitude": "28.11004300",
    "longitude": "-15.45848600"
  },
  {
    "id": "463",
    "name": "Ctra. de Tamaraceite, 143",
    "latitude": "28.09697278",
    "longitude": "-15.47392197"
  },
  {
    "id": "464",
    "name": "Ctra. del Cardón (cruce Las Torres)",
    "latitude": "28.11537671",
    "longitude": "-15.45539082"
  },
  {
    "id": "465",
    "name": "Gloria (Agustina de Aragón)",
    "latitude": "28.10784587",
    "longitude": "-15.42480201"
  },
  {
    "id": "466",
    "name": "Ctra. del Cardón (urb. Díaz Casanovas)",
    "latitude": "28.11721500",
    "longitude": "-15.45487900"
  },
  {
    "id": "467",
    "name": "R. Mesa y López (CEIP Timplista José Antonio Ramos)",
    "latitude": "28.10942745",
    "longitude": "-15.42535856"
  },
  {
    "id": "468",
    "name": "Ctra. del Cardón, frente 49",
    "latitude": "28.11924600",
    "longitude": "-15.45218874"
  },
  {
    "id": "469",
    "name": "Ctra. de Tamaraceite (rotonda Lomo Los Frailes)",
    "latitude": "28.09638125",
    "longitude": "-15.46514011"
  },
  {
    "id": "470",
    "name": "Ctra. de Chile, frente 91",
    "latitude": "28.12059260",
    "longitude": "-15.44795693"
  },
  {
    "id": "471",
    "name": "Ctra. de Tamaraceite (urb. La Guillena)",
    "latitude": "28.09583760",
    "longitude": "-15.46257458"
  },
  {
    "id": "472",
    "name": "Ctra. de Chile, 68",
    "latitude": "28.12321724",
    "longitude": "-15.44680022"
  },
  {
    "id": "473",
    "name": "Ctra. Tamaraceite (Las Perreras)",
    "latitude": "28.09800342",
    "longitude": "-15.46181343"
  },
  {
    "id": "474",
    "name": "Ctra. de Chile (campo de golf)",
    "latitude": "28.12606489",
    "longitude": "-15.44533125"
  },
  {
    "id": "475",
    "name": "Ctra. Tamaraceite, frente 62",
    "latitude": "28.10302000",
    "longitude": "-15.46223900"
  },
  {
    "id": "476",
    "name": "Luchana (Lepanto)",
    "latitude": "28.12798471",
    "longitude": "-15.44309903"
  },
  {
    "id": "477",
    "name": "Ctra. de Tamaraceite (Las Majadillas)",
    "latitude": "28.10719300",
    "longitude": "-15.46004300"
  },
  {
    "id": "479",
    "name": "Ctra. Tamaraceite (Danone)",
    "latitude": "28.11001800",
    "longitude": "-15.45838000"
  },
  {
    "id": "480",
    "name": "Camilo Martinón Navarro (Tiscamanita)",
    "latitude": "28.07608398",
    "longitude": "-15.46347002"
  },
  {
    "id": "481",
    "name": "Ctra. del Cardón (cruce Las Torres)",
    "latitude": "28.11552611",
    "longitude": "-15.45524008"
  },
  {
    "id": "482",
    "name": "Fernando Guanarteme, 62",
    "latitude": "28.13425793",
    "longitude": "-15.43864987"
  },
  {
    "id": "483",
    "name": "Ctra. del Cardón (urb. Díaz Casanovas)",
    "latitude": "28.11755590",
    "longitude": "-15.45430995"
  },
  {
    "id": "484",
    "name": "Ctra. de Almatriche, 30",
    "latitude": "28.07819476",
    "longitude": "-15.46198505"
  },
  {
    "id": "485",
    "name": "Ctra. del Cardón, 41",
    "latitude": "28.11932269",
    "longitude": "-15.45171311"
  },
  {
    "id": "486",
    "name": "Fernando Guanarteme (plta. Farray)",
    "latitude": "28.13690609",
    "longitude": "-15.43560278"
  },
  {
    "id": "487",
    "name": "Camino Viejo El Cardón, 1",
    "latitude": "28.11941500",
    "longitude": "-15.44806500"
  },
  {
    "id": "488",
    "name": "Fernando Guanarteme (pl. Betancores)",
    "latitude": "28.13791231",
    "longitude": "-15.43450775"
  },
  {
    "id": "489",
    "name": "Ctra. de Chile, 75",
    "latitude": "28.12200319",
    "longitude": "-15.44707911"
  },
  {
    "id": "490",
    "name": "Junco (Amapola)",
    "latitude": "28.11040447",
    "longitude": "-15.45406470"
  },
  {
    "id": "491",
    "name": "Ctra. de Chile, 45",
    "latitude": "28.12343135",
    "longitude": "-15.44673943"
  },
  {
    "id": "492",
    "name": "Ctra. de Almatriche, 138",
    "latitude": "28.08384489",
    "longitude": "-15.46164149"
  },
  {
    "id": "493",
    "name": "Ctra. de Chile (campo de golf)",
    "latitude": "28.12548311",
    "longitude": "-15.44596575"
  },
  {
    "id": "494",
    "name": "Munguía, 8",
    "latitude": "28.10628901",
    "longitude": "-15.41529528"
  },
  {
    "id": "495",
    "name": "Lepanto, 63",
    "latitude": "28.12776724",
    "longitude": "-15.44303675"
  },
  {
    "id": "496",
    "name": "Rafael Cabrera (San Telmo)",
    "latitude": "28.10874434",
    "longitude": "-15.41593360"
  },
  {
    "id": "497",
    "name": "Mesa y López, 85",
    "latitude": "28.12973954",
    "longitude": "-15.44068230"
  },
  {
    "id": "498",
    "name": "Junco (Hiperdino)",
    "latitude": "28.11271671",
    "longitude": "-15.45497396"
  },
  {
    "id": "499",
    "name": "R. Mesa y López (El Audaz)",
    "latitude": "28.11095829",
    "longitude": "-15.42730261"
  },
  {
    "id": "500",
    "name": "Arequipa (Guaguas Municipales)",
    "latitude": "28.15654496",
    "longitude": "-15.42173551"
  },
  {
    "id": "501",
    "name": "Madreselva, frente 69",
    "latitude": "28.11178743",
    "longitude": "-15.45248011"
  },
  {
    "id": "502",
    "name": "Las Torres (Madreselva)",
    "latitude": "28.11326083",
    "longitude": "-15.45455575"
  },
  {
    "id": "503",
    "name": "Miguel Martín Fernández de la Torre (frente Centro de Menores)",
    "latitude": "28.05788210",
    "longitude": "-15.44177095"
  },
  {
    "id": "504",
    "name": "Ctra. de Almatriche, 94",
    "latitude": "28.08628079",
    "longitude": "-15.45911917"
  },
  {
    "id": "505",
    "name": "Miguel Martín Fernández de la Torre (Manuel Oraá)",
    "latitude": "28.05788137",
    "longitude": "-15.44528389"
  },
  {
    "id": "506",
    "name": "Mimosa, 27-29",
    "latitude": "28.11475511",
    "longitude": "-15.45066714"
  },
  {
    "id": "507",
    "name": "Ignacio Pérez Galdós",
    "latitude": "28.10524735",
    "longitude": "-15.42584632"
  },
  {
    "id": "508",
    "name": "Madreselva",
    "latitude": "28.11244264",
    "longitude": "-15.45392114"
  },
  {
    "id": "509",
    "name": "Cruce de La Montañeta",
    "latitude": "28.05721273",
    "longitude": "-15.44888206"
  },
  {
    "id": "510",
    "name": "Aconcagua, 1",
    "latitude": "28.09415819",
    "longitude": "-15.43944544"
  },
  {
    "id": "511",
    "name": "Juan Manuel Durán González (Bernardo de la Torre)",
    "latitude": "28.13537591",
    "longitude": "-15.43404839"
  },
  {
    "id": "512",
    "name": "Aconcagua (colegio Casablanca III)",
    "latitude": "28.09358878",
    "longitude": "-15.44249855"
  },
  {
    "id": "513",
    "name": "Lentini (Monopol)",
    "latitude": "28.10231351",
    "longitude": "-15.41517606"
  },
  {
    "id": "514",
    "name": "San Cristóbal (Estribor)",
    "latitude": "28.07627947",
    "longitude": "-15.41524849"
  },
  {
    "id": "515",
    "name": "Pino Apolinario (Centro Cívico)",
    "latitude": "28.09482887",
    "longitude": "-15.43909110"
  },
  {
    "id": "516",
    "name": "Av. Marítima (San Cristóbal)",
    "latitude": "28.07997344",
    "longitude": "-15.41592869"
  },
  {
    "id": "517",
    "name": "Aconcagua (colegio Casablanca III)",
    "latitude": "28.09379555",
    "longitude": "-15.44242272"
  },
  {
    "id": "518",
    "name": "Archivero Joaquín Blanco Montesdeoca (Pedro Barber)",
    "latitude": "28.11264997",
    "longitude": "-15.45157819"
  },
  {
    "id": "519",
    "name": "Archivero Joaquín Blanco Montesdeoca (Mimosa)",
    "latitude": "28.11297418",
    "longitude": "-15.45153947"
  },
  {
    "id": "520",
    "name": "Archivero Joaquín Blanco Montesdeoca, 21",
    "latitude": "28.11377304",
    "longitude": "-15.45366599"
  },
  {
    "id": "521",
    "name": "Pº San Antonio, 4",
    "latitude": "28.10791577",
    "longitude": "-15.42244699"
  },
  {
    "id": "522",
    "name": "Pº San Antonio, 27",
    "latitude": "28.10807649",
    "longitude": "-15.42250610"
  },
  {
    "id": "523",
    "name": "Rafael Cabrera (Teatro)",
    "latitude": "28.10426990",
    "longitude": "-15.41373656"
  },
  {
    "id": "524",
    "name": "Pº San Antonio, 85",
    "latitude": "28.11216365",
    "longitude": "-15.42750149"
  },
  {
    "id": "525",
    "name": "Arminda, frente 1",
    "latitude": "28.08487416",
    "longitude": "-15.43732423"
  },
  {
    "id": "526",
    "name": "San Cristóbal (acceso Avda. Marítima)",
    "latitude": "28.07970410",
    "longitude": "-15.41570158"
  },
  {
    "id": "527",
    "name": "Farmacéutico Arencibia Cabrera, 28",
    "latitude": "28.08730238",
    "longitude": "-15.43500149"
  },
  {
    "id": "528",
    "name": "Tafira Baja",
    "latitude": "28.07219945",
    "longitude": "-15.44969635"
  },
  {
    "id": "529",
    "name": "Archivero Joaquín Blanco Montesdeoca (rtda. Nicolás Díaz Chico)",
    "latitude": "28.11459034",
    "longitude": "-15.45479426"
  },
  {
    "id": "530",
    "name": "Alcalde Díaz Saavedra Navarro (Prudencio Guzmán)",
    "latitude": "28.09654898",
    "longitude": "-15.41240578"
  },
  {
    "id": "531",
    "name": "Veracruz, 16",
    "latitude": "28.06313583",
    "longitude": "-15.42448423"
  },
  {
    "id": "532",
    "name": "Farmacéutico Arencibia Cabrera, frente 18",
    "latitude": "28.08753762",
    "longitude": "-15.43463279"
  },
  {
    "id": "533",
    "name": "Marianao, 60",
    "latitude": "28.06148008",
    "longitude": "-15.42866242"
  },
  {
    "id": "534",
    "name": "Pino Apolinario (iglesia Lomo Apolinario)",
    "latitude": "28.09606358",
    "longitude": "-15.43821409"
  },
  {
    "id": "535",
    "name": "Monterrey, 1",
    "latitude": "28.06101268",
    "longitude": "-15.43054257"
  },
  {
    "id": "536",
    "name": "Buenos Aires, 43",
    "latitude": "28.10709462",
    "longitude": "-15.42001072"
  },
  {
    "id": "537",
    "name": "María Arencibia Cabrera",
    "latitude": "28.09777746",
    "longitude": "-15.47733915"
  },
  {
    "id": "538",
    "name": "María Arencibia Cabrera",
    "latitude": "28.09764831",
    "longitude": "-15.47762895"
  },
  {
    "id": "540",
    "name": "Arminda (La Favorita)",
    "latitude": "28.08502373",
    "longitude": "-15.43726612"
  },
  {
    "id": "541",
    "name": "Amurga (iglesia)",
    "latitude": "28.07679758",
    "longitude": "-15.42599958"
  },
  {
    "id": "543",
    "name": "Profesor Lozano (Canarias 7)",
    "latitude": "28.15602513",
    "longitude": "-15.41769200"
  },
  {
    "id": "544",
    "name": "Marianao, 5",
    "latitude": "28.06337698",
    "longitude": "-15.42262054"
  },
  {
    "id": "545",
    "name": "Pl. Barranco La Ballena",
    "latitude": "28.11378567",
    "longitude": "-15.44654109"
  },
  {
    "id": "546",
    "name": "Marianao, 53",
    "latitude": "28.06233582",
    "longitude": "-15.42509372"
  },
  {
    "id": "547",
    "name": "Virgen del Pilar, 28",
    "latitude": "28.11628439",
    "longitude": "-15.44497616"
  },
  {
    "id": "548",
    "name": "Marianao, 103",
    "latitude": "28.06153790",
    "longitude": "-15.42769719"
  },
  {
    "id": "549",
    "name": "Camino Viejo El Cardón, frente 74",
    "latitude": "28.11585100",
    "longitude": "-15.45487100"
  },
  {
    "id": "551",
    "name": "Camino Viejo El Cardón, 55",
    "latitude": "28.11801235",
    "longitude": "-15.45262649"
  },
  {
    "id": "552",
    "name": "Profesor Lozano, 10",
    "latitude": "28.15616443",
    "longitude": "-15.41693370"
  },
  {
    "id": "554",
    "name": "Doctor Juan Domínguez Pérez, 25",
    "latitude": "28.15831285",
    "longitude": "-15.41383490"
  },
  {
    "id": "555",
    "name": "Doctor Juan Domínguez Pérez, 2",
    "latitude": "28.15650663",
    "longitude": "-15.41538347"
  },
  {
    "id": "556",
    "name": "Amurga, frente iglesia",
    "latitude": "28.07672085",
    "longitude": "-15.42611416"
  },
  {
    "id": "557",
    "name": "Doctor Juan Domínguez Pérez, 18",
    "latitude": "28.15967767",
    "longitude": "-15.41215611"
  },
  {
    "id": "558",
    "name": "Virgen del Pilar (pl. Barranco de La Ballena)",
    "latitude": "28.11369031",
    "longitude": "-15.44683802"
  },
  {
    "id": "560",
    "name": "Virgen del Pilar, frente 26",
    "latitude": "28.11580577",
    "longitude": "-15.44559363"
  },
  {
    "id": "561",
    "name": "Ctra. del Cardón, frente 118",
    "latitude": "28.11954534",
    "longitude": "-15.44808653"
  },
  {
    "id": "562",
    "name": "Manuel de Falla (Nueva Paterna)",
    "latitude": "28.09007560",
    "longitude": "-15.45037105"
  },
  {
    "id": "563",
    "name": "Ctra. Lomo Blanco (IES Felo Monzón)",
    "latitude": "28.08183197",
    "longitude": "-15.44717101"
  },
  {
    "id": "564",
    "name": "Manuel de Falla, frente 52",
    "latitude": "28.09084298",
    "longitude": "-15.45065649"
  },
  {
    "id": "565",
    "name": "Ctra. Lomo Blanco, 94",
    "latitude": "28.07771030",
    "longitude": "-15.44837508"
  },
  {
    "id": "566",
    "name": "Manuel de Falla (colegio La Paterna)",
    "latitude": "28.09233677",
    "longitude": "-15.44942352"
  },
  {
    "id": "567",
    "name": "Ctra. Lomo Blanco (urb. El Zurbarán)",
    "latitude": "28.07605634",
    "longitude": "-15.44965018"
  },
  {
    "id": "568",
    "name": "Doctor Juan Domínguez Pérez, 49",
    "latitude": "28.16023381",
    "longitude": "-15.41189860"
  },
  {
    "id": "569",
    "name": "Veracruz, 36",
    "latitude": "28.06244067",
    "longitude": "-15.42666283"
  },
  {
    "id": "570",
    "name": "Zaragoza (Don Pedro Infinito)",
    "latitude": "28.10952859",
    "longitude": "-15.43179345"
  },
  {
    "id": "571",
    "name": "Costa Rica",
    "latitude": "28.13020814",
    "longitude": "-15.43957751"
  },
  {
    "id": "572",
    "name": "Juan Manuel Durán González (El Corte Inglés)",
    "latitude": "28.13546790",
    "longitude": "-15.43258464"
  },
  {
    "id": "573",
    "name": "Miguel Curbelo (Autoridad Portuaria)",
    "latitude": "28.14746999",
    "longitude": "-15.41944519"
  },
  {
    "id": "574",
    "name": "Ctra. del Centro (Teatro Guiniguada)",
    "latitude": "28.10218437",
    "longitude": "-15.41489331"
  },
  {
    "id": "575",
    "name": "Av. Los Cambulloneros",
    "latitude": "28.14520028",
    "longitude": "-15.41617123"
  },
  {
    "id": "576",
    "name": "Pepe Dámaso, 17",
    "latitude": "28.10042345",
    "longitude": "-15.47440757"
  },
  {
    "id": "577",
    "name": "Muelle de León y Castillo (gasolinera de BP)",
    "latitude": "28.14805283",
    "longitude": "-15.41680789"
  },
  {
    "id": "578",
    "name": "Ctra. Lomo Blanco (urb. El Zurbarán)",
    "latitude": "28.07582280",
    "longitude": "-15.44961066"
  },
  {
    "id": "579",
    "name": "Av. de las Petrolíferas (Depósitos Comerciales)",
    "latitude": "28.15321039",
    "longitude": "-15.41446462"
  },
  {
    "id": "580",
    "name": "Ctra. Lomo Blanco, 81",
    "latitude": "28.07996776",
    "longitude": "-15.44734574"
  },
  {
    "id": "581",
    "name": "Pepe Dámaso, 12",
    "latitude": "28.10059141",
    "longitude": "-15.47450911"
  },
  {
    "id": "582",
    "name": "Ctra. Lomo Blanco, frente 51",
    "latitude": "28.08190527",
    "longitude": "-15.44702524"
  },
  {
    "id": "583",
    "name": "Betania, 69",
    "latitude": "28.10085208",
    "longitude": "-15.46958906"
  },
  {
    "id": "585",
    "name": "Betania, 41",
    "latitude": "28.10218770",
    "longitude": "-15.46855411"
  },
  {
    "id": "586",
    "name": "Miguel Curbelo (Autoridad Portuaria)",
    "latitude": "28.14761894",
    "longitude": "-15.41959613"
  },
  {
    "id": "587",
    "name": "Betania, 7",
    "latitude": "28.10347977",
    "longitude": "-15.46756990"
  },
  {
    "id": "588",
    "name": "Muelle de León y Castillo (gasolinera de BP)",
    "latitude": "28.15053671",
    "longitude": "-15.41716683"
  },
  {
    "id": "590",
    "name": "Av. de las Petrolíferas (Depósitos Comerciales)",
    "latitude": "28.15370725",
    "longitude": "-15.41426450"
  },
  {
    "id": "591",
    "name": "Av. de las Petrolíferas (Astican)",
    "latitude": "28.15633593",
    "longitude": "-15.41180648"
  },
  {
    "id": "592",
    "name": "Av. de las Petrolíferas (Astican)",
    "latitude": "28.15665976",
    "longitude": "-15.41200213"
  },
  {
    "id": "593",
    "name": "Av. de las Petrolíferas (Repnaval - Grupo Zamakona)",
    "latitude": "28.16001750",
    "longitude": "-15.40959689"
  },
  {
    "id": "594",
    "name": "Av. de las Petrolíferas (Repnaval - Grupo Zamakona)",
    "latitude": "28.16008567",
    "longitude": "-15.40987283"
  },
  {
    "id": "595",
    "name": "Av. de La Feria (Urbanización Los Geranios)",
    "latitude": "28.10677982",
    "longitude": "-15.44715777"
  },
  {
    "id": "596",
    "name": "Hebrón, 2",
    "latitude": "28.10436964",
    "longitude": "-15.46920083"
  },
  {
    "id": "597",
    "name": "Archivero Joaquín Blanco Montesdeoca, frente 3",
    "latitude": "28.11121276",
    "longitude": "-15.44902018"
  },
  {
    "id": "598",
    "name": "Hebrón, 24",
    "latitude": "28.10329337",
    "longitude": "-15.47040944"
  },
  {
    "id": "599",
    "name": "Galilea, frente 6",
    "latitude": "28.09394067",
    "longitude": "-15.48525731"
  },
  {
    "id": "600",
    "name": "Ventura Doreste, 7",
    "latitude": "28.10147428",
    "longitude": "-15.47229754"
  },
  {
    "id": "601",
    "name": "San Andrés, frente 6",
    "latitude": "28.09670325",
    "longitude": "-15.48160749"
  },
  {
    "id": "602",
    "name": "Av. de las Petrolíferas (Reina Sofía)",
    "latitude": "28.16078442",
    "longitude": "-15.40735560"
  },
  {
    "id": "603",
    "name": "Ctra. de Teror",
    "latitude": "28.09766274",
    "longitude": "-15.48032062"
  },
  {
    "id": "604",
    "name": "Las Borreras, 1",
    "latitude": "28.10659200",
    "longitude": "-15.45027100"
  },
  {
    "id": "605",
    "name": "Ciencias Básicas / Informática",
    "latitude": "28.07276171",
    "longitude": "-15.45190456"
  },
  {
    "id": "606",
    "name": "Archivero Joaquín Blanco Montesdeoca, 3",
    "latitude": "28.11111083",
    "longitude": "-15.44941125"
  },
  {
    "id": "607",
    "name": "Gobernador Marín Acuña (Hospital Juan Carlos I)",
    "latitude": "28.10272338",
    "longitude": "-15.42396032"
  },
  {
    "id": "608",
    "name": "Av. de La Feria (urbanización Los Geranios)",
    "latitude": "28.10673489",
    "longitude": "-15.44702843"
  },
  {
    "id": "609",
    "name": "Nelson Mandela (acceso)",
    "latitude": "28.16329692",
    "longitude": "-15.40510719"
  },
  {
    "id": "610",
    "name": "Alicante (C.S. San José)",
    "latitude": "28.09261832",
    "longitude": "-15.41386382"
  },
  {
    "id": "611",
    "name": "San José Artesano, 46",
    "latitude": "28.08363953",
    "longitude": "-15.44478491"
  },
  {
    "id": "612",
    "name": "Ciencias Básicas / Teología",
    "latitude": "28.07254928",
    "longitude": "-15.45168200"
  },
  {
    "id": "613",
    "name": "Ctra. Lomo Blanco, 54",
    "latitude": "28.07993757",
    "longitude": "-15.44743423"
  },
  {
    "id": "614",
    "name": "Nueva, 73",
    "latitude": "28.09561363",
    "longitude": "-15.43181682"
  },
  {
    "id": "615",
    "name": "Hospital Juan Carlos I",
    "latitude": "28.10316880",
    "longitude": "-15.42295140"
  },
  {
    "id": "616",
    "name": "Nelson Mandela (salida)",
    "latitude": "28.16350391",
    "longitude": "-15.40548006"
  },
  {
    "id": "617",
    "name": "Av. de La Feria (Infecar)",
    "latitude": "28.10650176",
    "longitude": "-15.44489934"
  },
  {
    "id": "618",
    "name": "Galilea, 8",
    "latitude": "28.09394774",
    "longitude": "-15.48532654"
  },
  {
    "id": "620",
    "name": "San Andrés, 6",
    "latitude": "28.09692700",
    "longitude": "-15.48176500"
  },
  {
    "id": "621",
    "name": "Aconcagua, 38",
    "latitude": "28.09175293",
    "longitude": "-15.44561027"
  },
  {
    "id": "622",
    "name": "Ctra. de Teror, 16",
    "latitude": "28.09778670",
    "longitude": "-15.48008504"
  },
  {
    "id": "623",
    "name": "San Andrés, 39",
    "latitude": "28.09494947",
    "longitude": "-15.48196495"
  },
  {
    "id": "624",
    "name": "Pintor Felo Monzón (frente Hipercor)",
    "latitude": "28.09540800",
    "longitude": "-15.45576000"
  },
  {
    "id": "625",
    "name": "Ctra. del Centro (antigua cárcel)",
    "latitude": "28.09343000",
    "longitude": "-15.42541500"
  },
  {
    "id": "626",
    "name": "Castillo, 16",
    "latitude": "28.09950100",
    "longitude": "-15.41753469"
  },
  {
    "id": "627",
    "name": "Las Borreras, 10",
    "latitude": "28.10716720",
    "longitude": "-15.45290081"
  },
  {
    "id": "628",
    "name": "Av. de las Petrolíferas (Reina Sofía)",
    "latitude": "28.16100866",
    "longitude": "-15.40743164"
  },
  {
    "id": "629",
    "name": "Las Borreras, frente 1",
    "latitude": "28.10669135",
    "longitude": "-15.45022259"
  },
  {
    "id": "630",
    "name": "Orinoco",
    "latitude": "28.09240859",
    "longitude": "-15.44421175"
  },
  {
    "id": "631",
    "name": "San Fernando, 38",
    "latitude": "28.09417100",
    "longitude": "-15.48337400"
  },
  {
    "id": "632",
    "name": "Beni",
    "latitude": "28.15363103",
    "longitude": "-15.41819719"
  },
  {
    "id": "633",
    "name": "Amurga (ctra. San Juan de Dios)",
    "latitude": "28.07776493",
    "longitude": "-15.42736762"
  },
  {
    "id": "634",
    "name": "Eufemiano Jurado (Juzgados)",
    "latitude": "28.09466289",
    "longitude": "-15.41355416"
  },
  {
    "id": "635",
    "name": "Fondos de Segura, frente 17",
    "latitude": "28.10916323",
    "longitude": "-15.45309508"
  },
  {
    "id": "636",
    "name": "Pintor Felo Monzón, 37",
    "latitude": "28.09810961",
    "longitude": "-15.45456870"
  },
  {
    "id": "637",
    "name": "Pintor Felo Monzón, 28",
    "latitude": "28.10444394",
    "longitude": "-15.45278578"
  },
  {
    "id": "638",
    "name": "Pintor Felo Monzón, 29",
    "latitude": "28.10080625",
    "longitude": "-15.45337326"
  },
  {
    "id": "639",
    "name": "Profesor Lozano (Catamarca)",
    "latitude": "28.15437676",
    "longitude": "-15.42088955"
  },
  {
    "id": "640",
    "name": "Eufemiano Jurado (Reyes Católicos)",
    "latitude": "28.09602409",
    "longitude": "-15.41454396"
  },
  {
    "id": "641",
    "name": "Profesor Lozano (rotonda Arequipa)",
    "latitude": "28.15597359",
    "longitude": "-15.42037056"
  },
  {
    "id": "642",
    "name": "Alc. J. Ramírez Bethencourt (parque Romano)",
    "latitude": "28.12609813",
    "longitude": "-15.42801724"
  },
  {
    "id": "643",
    "name": "Sabino Berthelot, 26",
    "latitude": "28.07848400",
    "longitude": "-15.42249600"
  },
  {
    "id": "644",
    "name": "Córdoba (Bomberos Vegueta)",
    "latitude": "28.09487132",
    "longitude": "-15.41543186"
  },
  {
    "id": "645",
    "name": "Alicante (C.S. San José)",
    "latitude": "28.09244284",
    "longitude": "-15.41375051"
  },
  {
    "id": "646",
    "name": "Catamarca, frente 2",
    "latitude": "28.15240226",
    "longitude": "-15.41862534"
  },
  {
    "id": "647",
    "name": "Concepción Arenal",
    "latitude": "28.13342263",
    "longitude": "-15.43496354"
  },
  {
    "id": "648",
    "name": "Profesor Lozano, 34",
    "latitude": "28.15628312",
    "longitude": "-15.42011735"
  },
  {
    "id": "650",
    "name": "Sabino Berthelot, 39",
    "latitude": "28.07836047",
    "longitude": "-15.42265652"
  },
  {
    "id": "651",
    "name": "Amurga (El Lasso, bloque 1)",
    "latitude": "28.07444052",
    "longitude": "-15.42920846"
  },
  {
    "id": "652",
    "name": "Pío XII (Alejandro Hidalgo)",
    "latitude": "28.12203696",
    "longitude": "-15.43029932"
  },
  {
    "id": "653",
    "name": "Párroco Villar Reina (Pº de Chil)",
    "latitude": "28.11830100",
    "longitude": "-15.42999978"
  },
  {
    "id": "655",
    "name": "Guantánamo, frente 121",
    "latitude": "28.06043506",
    "longitude": "-15.42779674"
  },
  {
    "id": "656",
    "name": "Amurga (Acceso a Los Granjeros)",
    "latitude": "28.07434026",
    "longitude": "-15.42920045"
  },
  {
    "id": "657",
    "name": "Guantánamo, 108",
    "latitude": "28.05962546",
    "longitude": "-15.43021447"
  },
  {
    "id": "658",
    "name": "Amurga (carretera San Juan de Dios)",
    "latitude": "28.07748775",
    "longitude": "-15.42753163"
  },
  {
    "id": "659",
    "name": "Lomo del Capón",
    "latitude": "28.05461416",
    "longitude": "-15.44739407"
  },
  {
    "id": "660",
    "name": "Marianao, frente 82",
    "latitude": "28.06089536",
    "longitude": "-15.43013769"
  },
  {
    "id": "661",
    "name": "Galilea, 31",
    "latitude": "28.09235342",
    "longitude": "-15.48558908"
  },
  {
    "id": "662",
    "name": "Guantánamo, 115",
    "latitude": "28.06047293",
    "longitude": "-15.42745696"
  },
  {
    "id": "663",
    "name": "Hoya del Enamorado (IES José Saramago)",
    "latitude": "28.10762163",
    "longitude": "-15.44858877"
  },
  {
    "id": "664",
    "name": "Guantánamo, 165",
    "latitude": "28.05956861",
    "longitude": "-15.43014485"
  },
  {
    "id": "665",
    "name": "Judas Tadeo (barranquillo)",
    "latitude": "28.09091313",
    "longitude": "-15.48514483"
  },
  {
    "id": "666",
    "name": "Parque Tecnológico",
    "latitude": "28.07948400",
    "longitude": "-15.45341200"
  },
  {
    "id": "667",
    "name": "Real del Castillo",
    "latitude": "28.10507177",
    "longitude": "-15.42317683"
  },
  {
    "id": "668",
    "name": "Arquitecto Laureano Arroyo, frente 153",
    "latitude": "28.05898325",
    "longitude": "-15.44538206"
  },
  {
    "id": "669",
    "name": "Real del Castillo (San Nicolás)",
    "latitude": "28.10382478",
    "longitude": "-15.42176541"
  },
  {
    "id": "670",
    "name": "Hoya del Enamorado (IES José Saramago)",
    "latitude": "28.10764961",
    "longitude": "-15.44871867"
  },
  {
    "id": "671",
    "name": "Sierra Nevada, frente 44",
    "latitude": "28.10242712",
    "longitude": "-15.42089463"
  },
  {
    "id": "672",
    "name": "Judas Tadeo, 34",
    "latitude": "28.09109443",
    "longitude": "-15.48293958"
  },
  {
    "id": "673",
    "name": "Guantánamo (Centro P. Salto del Negro)",
    "latitude": "28.05927698",
    "longitude": "-15.43221207"
  },
  {
    "id": "674",
    "name": "Guantánamo, 215",
    "latitude": "28.05921781",
    "longitude": "-15.43205363"
  },
  {
    "id": "675",
    "name": "Isla de La Graciosa, frente 72",
    "latitude": "28.05742280",
    "longitude": "-15.44313758"
  },
  {
    "id": "676",
    "name": "Arquitecto Laureano Arroyo, 102 B",
    "latitude": "28.05897973",
    "longitude": "-15.44740941"
  },
  {
    "id": "677",
    "name": "Isla de La Graciosa, frente 42",
    "latitude": "28.05671423",
    "longitude": "-15.44474050"
  },
  {
    "id": "678",
    "name": "Arquitecto Laureano Arroyo, 64",
    "latitude": "28.05802328",
    "longitude": "-15.45020791"
  },
  {
    "id": "679",
    "name": "Isla de La Graciosa, 41",
    "latitude": "28.05603648",
    "longitude": "-15.44585545"
  },
  {
    "id": "680",
    "name": "Judas Tadeo (barranquillo)",
    "latitude": "28.09082338",
    "longitude": "-15.48519218"
  },
  {
    "id": "681",
    "name": "Arquitecto José Luis Jiménez, 3",
    "latitude": "28.05647575",
    "longitude": "-15.44836105"
  },
  {
    "id": "682",
    "name": "Biblioteca Universitaria",
    "latitude": "28.07562612",
    "longitude": "-15.45171712"
  },
  {
    "id": "683",
    "name": "Arquitecto Laureano Arroyo, 80",
    "latitude": "28.05834100",
    "longitude": "-15.44941100"
  },
  {
    "id": "684",
    "name": "Alameda de Colón",
    "latitude": "28.10281451",
    "longitude": "-15.41650267"
  },
  {
    "id": "685",
    "name": "Isla de Montaña Clara, frente 5",
    "latitude": "28.05536614",
    "longitude": "-15.44666535"
  },
  {
    "id": "686",
    "name": "Bernardino Correa Viera (C.S. Triana)",
    "latitude": "28.10115824",
    "longitude": "-15.41856073"
  },
  {
    "id": "687",
    "name": "Arquitecto Laureano Arroyo, 73",
    "latitude": "28.05801468",
    "longitude": "-15.45040246"
  },
  {
    "id": "688",
    "name": "Biblioteca Universitaria",
    "latitude": "28.07560663",
    "longitude": "-15.45203463"
  },
  {
    "id": "689",
    "name": "Bernardino Correa Viera, frente 13",
    "latitude": "28.10111588",
    "longitude": "-15.41883153"
  },
  {
    "id": "690",
    "name": "Aulario Ciencias Jurídicas",
    "latitude": "28.07808621",
    "longitude": "-15.44945454"
  },
  {
    "id": "691",
    "name": "Ciencias Jurídicas (Módulo B)",
    "latitude": "28.07812217",
    "longitude": "-15.44924846"
  },
  {
    "id": "692",
    "name": "Tablero de Gonzalo, frente 7",
    "latitude": "28.05771786",
    "longitude": "-15.43917275"
  },
  {
    "id": "693",
    "name": "Judas Tadeo, 36",
    "latitude": "28.09112199",
    "longitude": "-15.48354604"
  },
  {
    "id": "694",
    "name": "Miguel Martín Fernández de la Torre (Centro de Menores)",
    "latitude": "28.05780926",
    "longitude": "-15.44177340"
  },
  {
    "id": "695",
    "name": "Manzanilla, frente 14",
    "latitude": "28.10999741",
    "longitude": "-15.45251217"
  },
  {
    "id": "696",
    "name": "Tunerillas, frente 20",
    "latitude": "28.09556838",
    "longitude": "-15.44956316"
  },
  {
    "id": "697",
    "name": "Dr. Marañón",
    "latitude": "28.10526809",
    "longitude": "-15.43977113"
  },
  {
    "id": "698",
    "name": "Pintor Felo Monzón, 17",
    "latitude": "28.10639046",
    "longitude": "-15.45195683"
  },
  {
    "id": "699",
    "name": "Tablero de Gonzalo",
    "latitude": "28.05774264",
    "longitude": "-15.43939416"
  },
  {
    "id": "700",
    "name": "Pintor Felo Monzón, 25",
    "latitude": "28.10288015",
    "longitude": "-15.45280084"
  },
  {
    "id": "701",
    "name": "César Manrique, 88",
    "latitude": "28.09950811",
    "longitude": "-15.47030666"
  },
  {
    "id": "702",
    "name": "Av. de Ansite (Cementerio del Puerto)",
    "latitude": "28.12374403",
    "longitude": "-15.43849903"
  },
  {
    "id": "703",
    "name": "Av. de Ansite (Cementerio del Puerto)",
    "latitude": "28.12391100",
    "longitude": "-15.43858200"
  },
  {
    "id": "704",
    "name": "Pintor Felo Monzón (Hoya de La Gallina)",
    "latitude": "28.09538092",
    "longitude": "-15.45615470"
  },
  {
    "id": "705",
    "name": "Hospital Dr. Negrín (Hospitalización)",
    "latitude": "28.12094700",
    "longitude": "-15.44320800"
  },
  {
    "id": "706",
    "name": "Hospital Dr. Negrín (acceso principal)",
    "latitude": "28.12056169",
    "longitude": "-15.44349890"
  },
  {
    "id": "707",
    "name": "Emilio Ley",
    "latitude": "28.12178234",
    "longitude": "-15.42999677"
  },
  {
    "id": "708",
    "name": "Juan Carlos I (rotonda hospital Dr. Negrín)",
    "latitude": "28.11967626",
    "longitude": "-15.44297458"
  },
  {
    "id": "709",
    "name": "Ctra. San Juan de Dios (Guincho)",
    "latitude": "28.07394523",
    "longitude": "-15.42670652"
  },
  {
    "id": "710",
    "name": "Santa Luisa de Marillac",
    "latitude": "28.10487854",
    "longitude": "-15.43431846"
  },
  {
    "id": "711",
    "name": "Pardela 14",
    "latitude": "28.07345541",
    "longitude": "-15.42917868"
  },
  {
    "id": "712",
    "name": "Mimosa",
    "latitude": "28.11273969",
    "longitude": "-15.45242320"
  },
  {
    "id": "713",
    "name": "Amurga, 27",
    "latitude": "28.07587887",
    "longitude": "-15.41943195"
  },
  {
    "id": "714",
    "name": "Ciencias Básicas",
    "latitude": "28.07340700",
    "longitude": "-15.45278050"
  },
  {
    "id": "715",
    "name": "Ctra. San Juan de Dios (Guincho)",
    "latitude": "28.07385293",
    "longitude": "-15.42715730"
  },
  {
    "id": "717",
    "name": "Mimosa",
    "latitude": "28.11243404",
    "longitude": "-15.45251268"
  },
  {
    "id": "719",
    "name": "Pico Viento",
    "latitude": "28.07710400",
    "longitude": "-15.44457391"
  },
  {
    "id": "720",
    "name": "Hoya de la Gallina (Cementerio de San Lázaro)",
    "latitude": "28.09741284",
    "longitude": "-15.45821731"
  },
  {
    "id": "721",
    "name": "Pintor Felo Monzón, 22",
    "latitude": "28.10633776",
    "longitude": "-15.45232903"
  },
  {
    "id": "722",
    "name": "Mariucha (Canódromo)",
    "latitude": "28.11106431",
    "longitude": "-15.43444884"
  },
  {
    "id": "723",
    "name": "Pintor Felo Monzón, 38",
    "latitude": "28.10077655",
    "longitude": "-15.45376994"
  },
  {
    "id": "724",
    "name": "César Manrique, 3",
    "latitude": "28.09780817",
    "longitude": "-15.46847127"
  },
  {
    "id": "725",
    "name": "Pintor Felo Monzón (C.C. Siete Palmas)",
    "latitude": "28.09772358",
    "longitude": "-15.45510951"
  },
  {
    "id": "726",
    "name": "Judas Tadeo, 66",
    "latitude": "28.09041905",
    "longitude": "-15.48154274"
  },
  {
    "id": "728",
    "name": "César Manrique, frente 102",
    "latitude": "28.09991275",
    "longitude": "-15.47115522"
  },
  {
    "id": "729",
    "name": "Avda. 8 de Marzo (C.C. Alisios)",
    "latitude": "28.09439326",
    "longitude": "-15.47819019"
  },
  {
    "id": "730",
    "name": "Galilea, 60",
    "latitude": "28.09135773",
    "longitude": "-15.48584761"
  },
  {
    "id": "731",
    "name": "Ingenierías",
    "latitude": "28.07069336",
    "longitude": "-15.45516300"
  },
  {
    "id": "732",
    "name": "Avda. 8 de Marzo (C.C. Alisios)",
    "latitude": "28.09465426",
    "longitude": "-15.47803803"
  },
  {
    "id": "733",
    "name": "César Manrique, 12",
    "latitude": "28.09800545",
    "longitude": "-15.46837286"
  },
  {
    "id": "734",
    "name": "Base Naval",
    "latitude": "28.13457771",
    "longitude": "-15.42932705"
  },
  {
    "id": "735",
    "name": "Judas Tadeo, 61",
    "latitude": "28.09046048",
    "longitude": "-15.48147690"
  },
  {
    "id": "736",
    "name": "Pintor Felo Monzón (Hipercor)",
    "latitude": "28.09522866",
    "longitude": "-15.45622846"
  },
  {
    "id": "738",
    "name": "Serventía, 145",
    "latitude": "28.08894276",
    "longitude": "-15.46014830"
  },
  {
    "id": "739",
    "name": "Plutón, frente 14",
    "latitude": "28.09502460",
    "longitude": "-15.46196179"
  },
  {
    "id": "740",
    "name": "Ctra. de Almatriche (Fábrica de Tejas)",
    "latitude": "28.09334853",
    "longitude": "-15.45978930"
  },
  {
    "id": "741",
    "name": "Leopoldo Alonso, 5",
    "latitude": "28.11785040",
    "longitude": "-15.44337448"
  },
  {
    "id": "742",
    "name": "Ctra. de Almatriche (gasolinera)",
    "latitude": "28.09092323",
    "longitude": "-15.45940072"
  },
  {
    "id": "743",
    "name": "Ctra. de Almatriche, 20",
    "latitude": "28.09277944",
    "longitude": "-15.45986288"
  },
  {
    "id": "744",
    "name": "Ctra. de Almatriche",
    "latitude": "28.08938852",
    "longitude": "-15.45920485"
  },
  {
    "id": "745",
    "name": "Ctra. de Almatriche, frente 47",
    "latitude": "28.09073333",
    "longitude": "-15.45950000"
  },
  {
    "id": "746",
    "name": "Ctra. de Almatriche, 135",
    "latitude": "28.08521178",
    "longitude": "-15.45957353"
  },
  {
    "id": "747",
    "name": "Ctra. de Almatriche, frente 71",
    "latitude": "28.08951965",
    "longitude": "-15.45933551"
  },
  {
    "id": "748",
    "name": "Ctra. de Almatriche, 169",
    "latitude": "28.08351637",
    "longitude": "-15.46155443"
  },
  {
    "id": "749",
    "name": "Serventía, 189",
    "latitude": "28.09082952",
    "longitude": "-15.46031578"
  },
  {
    "id": "750",
    "name": "Ctra. de Almatriche, 259",
    "latitude": "28.08024742",
    "longitude": "-15.46174361"
  },
  {
    "id": "751",
    "name": "Serventía, 101",
    "latitude": "28.08669700",
    "longitude": "-15.45960600"
  },
  {
    "id": "752",
    "name": "Ctra. de San Lorenzo, 400",
    "latitude": "28.07777485",
    "longitude": "-15.46251115"
  },
  {
    "id": "753",
    "name": "Serventía, 85",
    "latitude": "28.08796343",
    "longitude": "-15.46017485"
  },
  {
    "id": "754",
    "name": "Camilo Martinón Navarro, 3",
    "latitude": "28.07652896",
    "longitude": "-15.46357315"
  },
  {
    "id": "756",
    "name": "Camilo Martinón Navarro, frente 32",
    "latitude": "28.07466924",
    "longitude": "-15.46391156"
  },
  {
    "id": "757",
    "name": "Plutón (CEIP Hoya Andrea)",
    "latitude": "28.09250116",
    "longitude": "-15.46199656"
  },
  {
    "id": "758",
    "name": "Camilo Martinón Navarro, 69",
    "latitude": "28.07463111",
    "longitude": "-15.46513073"
  },
  {
    "id": "759",
    "name": "Ctra. de San Lorenzo, 230",
    "latitude": "28.07660000",
    "longitude": "-15.47835000"
  },
  {
    "id": "760",
    "name": "L. Suárez Rivero, frente 51",
    "latitude": "28.07355765",
    "longitude": "-15.46827426"
  },
  {
    "id": "762",
    "name": "L. Suárez Rivero, 22",
    "latitude": "28.07610753",
    "longitude": "-15.47258130"
  },
  {
    "id": "763",
    "name": "Ctra. Nueva de San Lorenzo (gasolinera)",
    "latitude": "28.09326590",
    "longitude": "-15.47798710"
  },
  {
    "id": "764",
    "name": "Ctra. de San Lorenzo, 282",
    "latitude": "28.07577066",
    "longitude": "-15.47392389"
  },
  {
    "id": "765",
    "name": "Ctra. de San Lorenzo, 120",
    "latitude": "28.08828816",
    "longitude": "-15.47887024"
  },
  {
    "id": "766",
    "name": "Olivo (carretera de Almatriche)",
    "latitude": "28.09386093",
    "longitude": "-15.45900223"
  },
  {
    "id": "767",
    "name": "Ctra. de San Lorenzo, 154",
    "latitude": "28.08581685",
    "longitude": "-15.47891058"
  },
  {
    "id": "768",
    "name": "Habana, 27",
    "latitude": "28.12935000",
    "longitude": "-15.43959200"
  },
  {
    "id": "769",
    "name": "Ctra. de San Lorenzo, 188",
    "latitude": "28.08149239",
    "longitude": "-15.47816039"
  },
  {
    "id": "770",
    "name": "Pintor Juan Guillermo, frente 19",
    "latitude": "28.12753066",
    "longitude": "-15.43765411"
  },
  {
    "id": "771",
    "name": "Ctra. de San Lorenzo, 254",
    "latitude": "28.07633899",
    "longitude": "-15.47647459"
  },
  {
    "id": "772",
    "name": "Pintor Juan Guillermo (C.C. La Minilla)",
    "latitude": "28.12556023",
    "longitude": "-15.43871993"
  },
  {
    "id": "773",
    "name": "Leopoldo Alonso",
    "latitude": "28.11806562",
    "longitude": "-15.44360396"
  },
  {
    "id": "774",
    "name": "Dña. Juana Marrero, 11",
    "latitude": "28.10765133",
    "longitude": "-15.46202826"
  },
  {
    "id": "775",
    "name": "Olivo (ctra. de Almatriche)",
    "latitude": "28.09404400",
    "longitude": "-15.45892000"
  },
  {
    "id": "776",
    "name": "Dña. J. Marrero, 61",
    "latitude": "28.10821900",
    "longitude": "-15.46306500"
  },
  {
    "id": "777",
    "name": "Habana, 28",
    "latitude": "28.12923800",
    "longitude": "-15.43977800"
  },
  {
    "id": "778",
    "name": "Cuesta Blanca, 9",
    "latitude": "28.09474800",
    "longitude": "-15.46049100"
  },
  {
    "id": "779",
    "name": "Garcia Lorca, frente 14",
    "latitude": "28.12791265",
    "longitude": "-15.43881179"
  },
  {
    "id": "780",
    "name": "Cuesta Blanca, 41",
    "latitude": "28.09286381",
    "longitude": "-15.46101353"
  },
  {
    "id": "781",
    "name": "Dña. J. Marrero, frente 11",
    "latitude": "28.10759041",
    "longitude": "-15.46149909"
  },
  {
    "id": "782",
    "name": "Juan Manuel Durán González (Galicia)",
    "latitude": "28.13543771",
    "longitude": "-15.43302209"
  },
  {
    "id": "783",
    "name": "Dña. J. Marrero, 70",
    "latitude": "28.10829807",
    "longitude": "-15.46345084"
  },
  {
    "id": "784",
    "name": "San Cristóbal (iglesia)",
    "latitude": "28.07748558",
    "longitude": "-15.41535839"
  },
  {
    "id": "785",
    "name": "Miller Industrial",
    "latitude": "28.09802338",
    "longitude": "-15.44354914"
  },
  {
    "id": "786",
    "name": "Ctra. subida a Tafira (La Favorita)",
    "latitude": "28.08483600",
    "longitude": "-15.43683900"
  },
  {
    "id": "787",
    "name": "Ctra. Pico Viento (Asilo de Ancianos)",
    "latitude": "28.07419571",
    "longitude": "-15.44696752"
  },
  {
    "id": "788",
    "name": "Ctra. Pico Viento (Asilo de Ancianos)",
    "latitude": "28.07399600",
    "longitude": "-15.44680829"
  },
  {
    "id": "789",
    "name": "Garcia Lorca, 17",
    "latitude": "28.12521295",
    "longitude": "-15.44032022"
  },
  {
    "id": "790",
    "name": "Carretera del Centro (Barrio de Quilmes, 3)",
    "latitude": "28.07153857",
    "longitude": "-15.44987647"
  },
  {
    "id": "791",
    "name": "Lázaro de Ortega (Ciudad del Campo)",
    "latitude": "28.09189704",
    "longitude": "-15.47863834"
  },
  {
    "id": "792",
    "name": "Ciudad Deportiva Gran Canaria",
    "latitude": "28.07640985",
    "longitude": "-15.41742077"
  },
  {
    "id": "793",
    "name": "Lázaro de Ortega, 39",
    "latitude": "28.09020335",
    "longitude": "-15.47941887"
  },
  {
    "id": "794",
    "name": "Pico Viento",
    "latitude": "28.07721826",
    "longitude": "-15.44400068"
  },
  {
    "id": "795",
    "name": "Cuesta Blanca, frente 11",
    "latitude": "28.09462127",
    "longitude": "-15.46060914"
  },
  {
    "id": "796",
    "name": "Hoya de La Plata",
    "latitude": "28.06956459",
    "longitude": "-15.41802669"
  },
  {
    "id": "797",
    "name": "Cuesta Blanca, 34",
    "latitude": "28.09367700",
    "longitude": "-15.46115900"
  },
  {
    "id": "798",
    "name": "Mesa y López (Base Naval)",
    "latitude": "28.13482012",
    "longitude": "-15.42963600"
  },