[
  {
    "id": "1",
    "name": "TEATRO",
    "latitude": "28.10383060",
    "longitude": "-15.41371479"
  },
  {
    "id": "2",
    "name": "C / FRANCISCO GOURIÉ, 103",
    "latitude": "28.10749746",
    "longitude": "-15.41637148"
  },
  {
    "id": "3",
    "name": "AVDA. RAFAEL CABRERA (SAN TELMO)",
    "latitude": "28.10913611",
    "longitude": "-15.41612452"
  },
  {
    "id": "4",
    "name": "C/ TRIANA",
    "latitude": "28.10826300",
    "longitude": "-15.41743600"
  },
  {
    "id": "5",
    "name": "C/ VENEGAS (USOS MÚLTIPLES)",
    "latitude": "28.11259245",
    "longitude": "-15.41873934"
  },
  {
    "id": "6",
    "name": "C/ LEÓN Y CASTILLO, 13",
    "latitude": "28.10987174",
    "longitude": "-15.41822324"
  },
  {
    "id": "7",
    "name": "C/ VENEGAS (FUENTE LUMINOSA)"
  },
  {
    "id": "8",
    "name": "C/ LEON Y CASTILLO (PLAZA DE LA FERIA)",
    "latitude": "28.11343339",
    "longitude": "-15.42004315"
  },
  {
    "id": "9",
    "name": "C/ LUIS DORESTE SILVA, 22",
    "latitude": "28.11611731",
    "longitude": "-15.42131181"
  },
  {
    "id": "10",
    "name": "C/ LEÓN Y CASTILLO, 145",
    "latitude": "28.11641053",
    "longitude": "-15.42245882"
  },
  {
    "id": "11",
    "name": "MANUEL BECERRA (PUERTO)",
    "latitude": "28.15020789",
    "longitude": "-15.42201479"
  },
  {
    "id": "12",
    "name": "C/ LEÓN Y CASTILLO, 185",
    "latitude": "28.11797629",
    "longitude": "-15.42383423"
  },
  {
    "id": "13",
    "name": "C/ LEÓN Y CASTILLO (C.N. METROPOLE)",
    "latitude": "28.12211981",
    "longitude": "-15.42675145"
  },
  {
    "id": "14",
    "name": "C/ LEÓN Y CASTILLO, 209",
    "latitude": "28.12008373",
    "longitude": "-15.42560149"
  },
  {
    "id": "15",
    "name": "C/ LEÓN Y CASTILLO (OFICINAS MUNICIPALES)",
    "latitude": "28.12476861",
    "longitude": "-15.42856706"
  },
  {
    "id": "16",
    "name": "C/ LEÓN Y CASTILLO (COLEGIO SALESIANO)",
    "latitude": "28.12269298",
    "longitude": "-15.42737560"
  },
  {
    "id": "17",
    "name": "C/ LEÓN Y CASTILLO (TORRE LAS PALMAS)",
    "latitude": "28.12875648",
    "longitude": "-15.42981111"
  },
  {
    "id": "18",
    "name": "C/ LEÓN Y CASTILLO (OFICINAS MUNICIPALES)",
    "latitude": "28.12529530",
    "longitude": "-15.42910383"
  },
  {
    "id": "19",
    "name": "Primero de Mayo (ONCE)"
  },
  {
    "id": "20",
    "name": "INTERCAMBIADOR SANTA CATALINA",
    "latitude": "28.14000553",
    "longitude": "-15.42862546"
  },
  {
    "id": "21",
    "name": "Primero de Mayo ,6",
    "latitude": "28.10261551",
    "longitude": "-15.41771811"
  },
  {
    "id": "22",
    "name": "C/ LEÓN Y CASTILLO (EDIFICIO JOSÉ ANTONIO)",
    "latitude": "28.13257606",
    "longitude": "-15.43007608"
  },
  {
    "id": "23",
    "name": "PL. SAN JUAN BAUTISTA (BASE NAVAL)",
    "latitude": "28.13561132",
    "longitude": "-15.43017263"
  },
  {
    "id": "24",
    "name": "C/ PRESIDENTE ALVEAR (IGLESIA DEL PINO)",
    "latitude": "28.13563600",
    "longitude": "-15.43043400"
  },
  {
    "id": "25",
    "name": "C/ EDUARDO BENOT, FRENTE 5",
    "latitude": "28.14202296",
    "longitude": "-15.43004693"
  },
  {
    "id": "26",
    "name": "PARQUE SANTA CATALINA",
    "latitude": "28.13996041",
    "longitude": "-15.43075225"
  },
  {
    "id": "27",
    "name": "C/ EDUARDO BENOT, FRENTE 23",
    "latitude": "28.14386799",
    "longitude": "-15.42982051"
  },
  {
    "id": "28",
    "name": "C/ ALBAREDA, 43",
    "latitude": "28.14506442",
    "longitude": "-15.43024039"
  },
  {
    "id": "29",
    "name": "C/ AGUSTÍN MILLARES SALL (EDIFICIO MAPFRE)",
    "latitude": "28.14789292",
    "longitude": "-15.42795076"
  },
  {
    "id": "30",
    "name": "C/ JUAN REJÓN,25",
    "latitude": "28.14880400",
    "longitude": "-15.42804790"
  },
  {
    "id": "31",
    "name": "C/ JUAN REJÓN (CASTILLO DE LA LUZ)",
    "latitude": "28.14917339",
    "longitude": "-15.42531031"
  },
  {
    "id": "33",
    "name": "C/ LA NAVAL",
    "latitude": "28.15044470",
    "longitude": "-15.41905782"
  },
  {
    "id": "34",
    "name": "C/ JUAN REJÓN, 67",
    "latitude": "28.14919242",
    "longitude": "-15.42595393"
  },
  {
    "id": "35",
    "name": "AVDA. MARÍTIMA DEL SUR (JUAN XXIII)",
    "latitude": "28.12140300",
    "longitude": "-15.42387300"
  },
  {
    "id": "36",
    "name": "AVDA. DE CANARIAS (SAN TELMO)",
    "latitude": "28.10894829",
    "longitude": "-15.41516552"
  },
  {
    "id": "37",
    "name": "C/ LUIS DORESTE SILVA, 50",
    "latitude": "28.11861697",
    "longitude": "-15.42349786"
  },
  {
    "id": "38",
    "name": "AVDA. ALCALDE JOSÉ RAMÍREZ BETHENCOURT (CENTRO INSULAR DE DEPORTES)",
    "latitude": "28.11323916",
    "longitude": "-15.41716668"
  },
  {
    "id": "39",
    "name": "AVDA. JUAN XXIII (CLINICA DEL PINO)",
    "latitude": "28.11881782",
    "longitude": "-15.42684385"
  },
  {
    "id": "40",
    "name": "AVDA.  ALCALDE JOSÉ RAMÍREZ BETHENCOURT (CARVAJAL)",
    "latitude": "28.11853431",
    "longitude": "-15.42113872"
  },
  {
    "id": "41",
    "name": "AVDA. JUAN XXIII (COLEGIO CANTERBURY)",
    "latitude": "28.11855292",
    "longitude": "-15.42852821"
  },
  {
    "id": "42",
    "name": "DR. WALKSMANN, 10 (PLAZA LA FERIA)",
    "latitude": "28.11305890",
    "longitude": "-15.42033753"
  },
  {
    "id": "43",
    "name": "C/ PARROCO VILLAR REINA, 80 (BARRANQUILLO DON ZOILO)",
    "latitude": "28.11605880",
    "longitude": "-15.43140264"
  },
  {
    "id": "44",
    "name": "PLAZA DE LA CONSTITUCIÓN (OBELISCO)",
    "latitude": "28.11190391",
    "longitude": "-15.42375682"
  },
  {
    "id": "45",
    "name": "C/ PARROCO VILLAR REINA, 154 (BARRANQUILLO DON ZOILO)",
    "latitude": "28.11392495",
    "longitude": "-15.43256131"
  },
  {
    "id": "46",
    "name": "C/ PÉREZ DEL TORO, 13",
    "latitude": "28.11364800",
    "longitude": "-15.42511800"
  },
  {
    "id": "47",
    "name": "C/ CARLOS M. BLANDY (PLAZA DE ARUCAS)",
    "latitude": "28.11577356",
    "longitude": "-15.43421690"
  },
  {
    "id": "48",
    "name": "C/ PÉREZ DEL TORO (PLAZA DR. JUAN BOSCH MILLARES)",
    "latitude": "28.11720600",
    "longitude": "-15.42731100"
  },
  {
    "id": "49",
    "name": "C/ ALMIRANTE BENÍTEZ INGLOTT, 12",
    "latitude": "28.11381018",
    "longitude": "-15.43610078"
  },
  {
    "id": "50",
    "name": "C/ PARROCO VILLAR REINA, 61 (BARRANQUILLO DON ZOILO)",
    "latitude": "28.11584638",
    "longitude": "-15.43155029"
  },
  {
    "id": "51",
    "name": "C/ ALMIRANTE BENÍTEZ INGLOTT (C.S. ESCALERITAS)",
    "latitude": "28.11265500",
    "longitude": "-15.43800100"
  },
  {
    "id": "52",
    "name": "C/ PARROCO MATIAS ARTILES",
    "latitude": "28.11304707",
    "longitude": "-15.43362124"
  },
  {
    "id": "53",
    "name": "C/ PINTOR JUAN ISMAEL (IGLESIA REDONDA)",
    "latitude": "28.11052591",
    "longitude": "-15.43822118"
  },
  {
    "id": "54",
    "name": "C/ ECHEGARAY, 137",
    "latitude": "28.11460310",
    "longitude": "-15.43362667"
  },
  {
    "id": "55",
    "name": "C/ TEOBALDO POWER, FRENTE 51",
    "latitude": "28.10864065",
    "longitude": "-15.43974891"
  },
  {
    "id": "56",
    "name": "C/ HENRY DUNANT, FRENTE 10",
    "latitude": "28.11271420",
    "longitude": "-15.43530627"
  },
  {
    "id": "57",
    "name": "AVDA. ESCALERITAS, FRENTE 111",
    "latitude": "28.10773256",
    "longitude": "-15.44022479"
  },
  {
    "id": "58",
    "name": "C/ PRESIDENTE ALVEAR, 17",
    "latitude": "28.13508584",
    "longitude": "-15.43036942"
  },
  {
    "id": "59",
    "name": "AVDA. ESCALERITAS (URBANIZACIÓN SANSOFÉ)",
    "latitude": "28.10430731",
    "longitude": "-15.44098497"
  },
  {
    "id": "60",
    "name": "C/ DEAN RODRÍGUEZ BOLAÑOS (PL. ALVARADO Y SAZ)",
    "latitude": "28.11156399",
    "longitude": "-15.43705665"
  },
  {
    "id": "61",
    "name": "AVDA. ESCALERITAS( FRENTE C.C. LA BALLENA)",
    "latitude": "28.10330515",
    "longitude": "-15.44378700"
  },
  {
    "id": "62",
    "name": "C/ TEOBALDO POWER (IGLESIA REDONDA)",
    "latitude": "28.11056500",
    "longitude": "-15.43784300"
  },
  {
    "id": "63",
    "name": "AVDA. GUILLERMO SANTANA RIVERO, FRENTE 1",
    "latitude": "28.10624643",
    "longitude": "-15.44412723"
  },
  {
    "id": "64",
    "name": "C/ MARIUCHA, 139",
    "latitude": "28.10923400",
    "longitude": "-15.43786100"
  },
  {
    "id": "65",
    "name": "AVDA. GUILLERMO SANTANA RIVERO, FRENTE 19",
    "latitude": "28.10892888",
    "longitude": "-15.44406615"
  },
  {
    "id": "66",
    "name": "C/ MARIUCHA, 171",
    "latitude": "28.10720618",
    "longitude": "-15.43973353"
  },
  {
    "id": "67",
    "name": "AVDA. GUILLERMO SANTANA RIVERO, FRENTE 33",
    "latitude": "28.11110696",
    "longitude": "-15.44365658"
  },
  {
    "id": "68",
    "name": "AVDA. ESCALERITAS (URBANIZACIÓN SANSOFÉ)",
    "latitude": "28.10406500",
    "longitude": "-15.44089800"
  },
  {
    "id": "69",
    "name": "AVDA. GUILLERMO SANTANA RIVERO (PACUCO PENICHET)",
    "latitude": "28.11314804",
    "longitude": "-15.44326333"
  },
  {
    "id": "70",
    "name": "AVDA. ESCALERITAS (C.C. LA BALLENA)",
    "latitude": "28.10280842",
    "longitude": "-15.44276678"
  },
  {
    "id": "71",
    "name": "AVDA. ALCALDE DÍAZ SAAVEDRA NAVARRO (PL. SANTA ISABEL)",
    "latitude": "28.09702457",
    "longitude": "-15.41235983"
  },
  {
    "id": "72",
    "name": "AVDA. DE LA FERIA (INFECAR)",
    "latitude": "28.10657482",
    "longitude": "-15.44519928"
  },
  {
    "id": "73",
    "name": "C/ DR. HERNAN PEREZ DE GRADO, 6",
    "latitude": "28.09763545",
    "longitude": "-15.41554878"
  },
  {
    "id": "74",
    "name": "C/ DIEGO BETANCOR SUAREZ , 19",
    "latitude": "28.10923171",
    "longitude": "-15.44557088"
  },
  {
    "id": "75",
    "name": "C/ DR. HERNÁN PEREZ DE GRADO (LA PORTADILLA)",
    "latitude": "28.09810802",
    "longitude": "-15.41754285"
  },
  {
    "id": "76",
    "name": "C/ DIEGO BETANCOR SUAREZ, 39",
    "latitude": "28.11203572",
    "longitude": "-15.44494150"
  },
  {
    "id": "77",
    "name": "C/ BLAS CABRERA FELIPE (CARREFOUR)",
    "latitude": "28.07183400",
    "longitude": "-15.41781700"
  },
  {
    "id": "78",
    "name": "C/ EUFEMIANO JURADO (JUZGADOS)",
    "latitude": "28.09494749",
    "longitude": "-15.41372434"
  },
  {
    "id": "79",
    "name": "PASEO DE SAN JOSÉ (IGLESIA SAN JOSÉ)",
    "latitude": "28.09500586",
    "longitude": "-15.41840827"
  },
  {
    "id": "80",
    "name": "C/ EUFEMIANO JURADO, FRENTE 32",
    "latitude": "28.09611170",
    "longitude": "-15.41711673"
  },
  {
    "id": "81",
    "name": "PASEO DE SAN JOSÉ, 170",
    "latitude": "28.09134919",
    "longitude": "-15.41918157"
  },
  {
    "id": "82",
    "name": "PASEO DE SAN JOSÉ (IGLESIA SAN JOSÉ)",
    "latitude": "28.09473690",
    "longitude": "-15.41827361"
  },
  {
    "id": "83",
    "name": "PASEO DE SAN JOSÉ, 214",
    "latitude": "28.08977800",
    "longitude": "-15.41970000"
  },
  {
    "id": "84",
    "name": "PASEO DE SAN JOSÉ, FRENTE 154",
    "latitude": "28.09182199",
    "longitude": "-15.41895511"
  },
  {
    "id": "85",
    "name": "PASEO DE SAN JOSÉ, 264",
    "latitude": "28.08819006",
    "longitude": "-15.42011429"
  },
  {
    "id": "86",
    "name": "PASEO DE SAN JOSÉ, FRENTE 208",
    "latitude": "28.08991727",
    "longitude": "-15.41952462"
  },
  {
    "id": "87",
    "name": "PASEO DE SAN JOSÉ, 290",
    "latitude": "28.08597450",
    "longitude": "-15.41960777"
  },
  {
    "id": "88",
    "name": "PASEO DE SAN JOSÉ, FRENTE 266",
    "latitude": "28.08823801",
    "longitude": "-15.41997393"
  },
  {
    "id": "89",
    "name": "C/ BLAS CABRERA FELIPE (IGLESIA SANTA CLARA)",
    "latitude": "28.08390900",
    "longitude": "-15.41926695"
  },
  {
    "id": "90",
    "name": "PASEO DE SAN JOSÉ, FRENTE 298",
    "latitude": "28.08567589",
    "longitude": "-15.41899790"
  },
  {
    "id": "91",
    "name": "C/ MARIANAO, 12",
    "latitude": "28.06361936",
    "longitude": "-15.42289487"
  },
  {
    "id": "92",
    "name": "C/ BLAS CABRERA FELIPE, FRENTE 306",
    "latitude": "28.08463518",
    "longitude": "-15.41905269"
  },
  {
    "id": "93",
    "name": "C/ BLAS CABRERA FELIPE (PARKING HOSPITAL MATERNO INSULAR)",
    "latitude": "28.08032414",
    "longitude": "-15.41840691"
  },
  {
    "id": "94",
    "name": "C/ BLAS CABRERA FELIPE (IGLESIA SANTA CLARA)",
    "latitude": "28.08202753",
    "longitude": "-15.41871995"
  },
  {
    "id": "95",
    "name": "C/ BLAS CABRERA FELIPE (MARTÍN FREIRE)",
    "latitude": "28.07640340",
    "longitude": "-15.41732628"
  },
  {
    "id": "96",
    "name": "C/ BLAS CABRERA FELIPE (PARKING HOSPITAL MATERNO INSULAR)",
    "latitude": "28.08043842",
    "longitude": "-15.41829497"
  },
  {
    "id": "97",
    "name": "C/ BLAS CABRERA FELIPE, 14",
    "latitude": "28.07446335",
    "longitude": "-15.41732327"
  },
  {
    "id": "98",
    "name": "C/ BLAS CABRERA FELIPE (MARTÍN FREIRE)",
    "latitude": "28.07688791",
    "longitude": "-15.41736078"
  },
  {
    "id": "99",
    "name": "C/ PÁRROCO JOSÉ C. QUINTANA, 8",
    "latitude": "28.06817299",
    "longitude": "-15.41780043"
  },
  {
    "id": "100",
    "name": "C/ BLAS CABRERA FELIPE, FRENTE 16",
    "latitude": "28.07450714",
    "longitude": "-15.41717853"
  },
  {
    "id": "101",
    "name": "C/ PÁRROCO JOSÉ C. QUINTANA, 30",
    "latitude": "28.06698200",
    "longitude": "-15.41859700"
  },
  {
    "id": "102",
    "name": "C/ BLAS CABRERA FELIPE (CARREFOUR)",
    "latitude": "28.07246374",
    "longitude": "-15.41753595"
  },
  {
    "id": "103",
    "name": "C/ PÁRROCO JOSÉ C. QUINTANA, 46",
    "latitude": "28.06645119",
    "longitude": "-15.41981222"
  },
  {
    "id": "104",
    "name": "C/ PÁRROCO JOSÉ C. QUINTANA, FRENTE 8",
    "latitude": "28.06849384",
    "longitude": "-15.41779158"
  },
  {
    "id": "105",
    "name": "C/ MIGUEL MARTÍN FERNÁNDEZ DE LA TORRE , 7",
    "latitude": "28.05780976",
    "longitude": "-15.44525532"
  },
  {
    "id": "106",
    "name": "C/ PÁRROCO JOSÉ C. QUINTANA, 15",
    "latitude": "28.06726607",
    "longitude": "-15.41804542"
  },
  {
    "id": "107",
    "name": "C/ CÓRDOBA, 40",
    "latitude": "28.09290025",
    "longitude": "-15.41693040"
  },
  {
    "id": "108",
    "name": "C/ PÁRROCO JOSÉ C. QUINTANA, 41",
    "latitude": "28.06675546",
    "longitude": "-15.41896862"
  },
  {
    "id": "109",
    "name": "C/ CÓRDOBA, FRENTE 31",
    "latitude": "28.09073300",
    "longitude": "-15.41828000"
  },
  {
    "id": "110",
    "name": "C/ CÓRDOBA (BOMBEROS VEGUETA)",
    "latitude": "28.09516036",
    "longitude": "-15.41510221"
  },
  {
    "id": "111",
    "name": "C/ AYAGAURES (TANATORIO SAN MIGUEL)",
    "latitude": "28.11298426",
    "longitude": "-15.45563387"
  },
  {
    "id": "113",
    "name": "C/ CÓRDOBA, FRENTE 49",
    "latitude": "28.08798671",
    "longitude": "-15.41958822"
  },
  {
    "id": "114",
    "name": "C/ CÓRDOBA, 19",
    "latitude": "28.09374441",
    "longitude": "-15.41623797"
  },
  {
    "id": "115",
    "name": "C/ CÓRDOBA, 54",
    "latitude": "28.08596377",
    "longitude": "-15.41783781"
  },
  {
    "id": "116",
    "name": "C/ CÓRDOBA, 29",
    "latitude": "28.09082700",
    "longitude": "-15.41811200"
  },
  {
    "id": "117",
    "name": "C/ ALICANTE (COLEGIO ISLAS CANARIAS)",
    "latitude": "28.08527193",
    "longitude": "-15.41724806"
  },
  {
    "id": "118",
    "name": "C/ CÓRDOBA, 49",
    "latitude": "28.08812433",
    "longitude": "-15.41941941"
  },
  {
    "id": "119",
    "name": "AVDA. DE AMURGA (C.S. CONO SUR)",
    "latitude": "28.07649745",
    "longitude": "-15.41952378"
  },
  {
    "id": "120",
    "name": "C/ CÓRDOBA, 71",
    "latitude": "28.08606261",
    "longitude": "-15.41790526"
  },
  {
    "id": "121",
    "name": "AVDA. JUAN CARLOS I, 10",
    "latitude": "28.11761598",
    "longitude": "-15.44585730"
  },
  {
    "id": "122",
    "name": "C/ ALICANTE (COLEGIO ISLAS CANARIAS)",
    "latitude": "28.08506061",
    "longitude": "-15.41715497"
  },
  {
    "id": "123",
    "name": "AVDA. JUAN CARLOS I, 20",
    "latitude": "28.11539275",
    "longitude": "-15.44829707"
  },
  {
    "id": "124",
    "name": "C/ SARGENTO SALOM, 34",
    "latitude": "28.07273123",
    "longitude": "-15.41889047"
  },
  {
    "id": "125",
    "name": "C/ DOCTOR SVENTENIUS, FRENTE 16",
    "latitude": "28.08313978",
    "longitude": "-15.41951119"
  },
  {
    "id": "126",
    "name": "C/ PEDRO HIDALGO, 35",
    "latitude": "28.07169292",
    "longitude": "-15.42081253"
  },
  {
    "id": "127",
    "name": "C/ DOCTOR SVENTENIUS, FRENTE 2",
    "latitude": "28.08474506",
    "longitude": "-15.42017840"
  },
  {
    "id": "128",
    "name": "C/ PEDRO HIDALGO, 53",
    "latitude": "28.07140845",
    "longitude": "-15.42209208"
  },
  {
    "id": "129",
    "name": "C/ FRANCISCO INGLOTT ARTILES,  6",
    "latitude": "28.08407550",
    "longitude": "-15.42051317"
  },
  {
    "id": "130",
    "name": "C/ DEBUSSY, 3",
    "latitude": "28.07273227",
    "longitude": "-15.42186143"
  },
  {
    "id": "131",
    "name": "C/ JUAN SÁNCHEZ DE LA COBA, 2",
    "latitude": "28.08280144",
    "longitude": "-15.41980818"
  },
  {
    "id": "132",
    "name": "C/ DEBUSSY, 9",
    "latitude": "28.07347930",
    "longitude": "-15.41973092"
  },
  {
    "id": "133",
    "name": "C/ SABINO BERTHELOT, 6",
    "latitude": "28.07951312",
    "longitude": "-15.42076231"
  },
  {
    "id": "134",
    "name": "C/ DEBUSSY, FRENTE  6",
    "latitude": "28.07400084",
    "longitude": "-15.41829179"
  },
  {
    "id": "135",
    "name": "AVDA. DE AMURGA (CASAS TERRERAS EL LASSO, 33)",
    "latitude": "28.07548206",
    "longitude": "-15.42624181"
  },
  {
    "id": "136",
    "name": "C/ ANTON DVORAK, 5",
    "latitude": "28.07420128",
    "longitude": "-15.41879348"
  },
  {
    "id": "137",
    "name": "AVDA. DE AMURGA (CASAS TERRERAS EL LASSO, 1)",
    "latitude": "28.07511577",
    "longitude": "-15.42768373"
  },
  {
    "id": "138",
    "name": "C/ JUAN SEBASTIAN BACH, FRENTE 4",
    "latitude": "28.07446831",
    "longitude": "-15.41934763"
  },
  {
    "id": "139",
    "name": "AVDA. DE AMURGA (EL LASSO, BLOQUE 5)",
    "latitude": "28.07542297",
    "longitude": "-15.42837513"
  },
  {
    "id": "140",
    "name": "C/ BERLIOZ, 5",
    "latitude": "28.07447047",
    "longitude": "-15.42036034"
  },
  {
    "id": "141",
    "name": "AVDA. DE AMURGA (EL LASSO, BLOQUE 17)",
    "latitude": "28.07657200",
    "longitude": "-15.42673200"
  },
  {
    "id": "142",
    "name": "C/ SCHUBERT, FRENTE 6",
    "latitude": "28.07489639",
    "longitude": "-15.41963144"
  },
  {
    "id": "143",
    "name": "C/ SARGENTO SALOM, 44",
    "latitude": "28.07277992",
    "longitude": "-15.41916151"
  },
  {
    "id": "144",
    "name": "C/ SCHUBERT, 5",
    "latitude": "28.07507170",
    "longitude": "-15.41969976"
  },
  {
    "id": "145",
    "name": "C/PEDRO HIDALGO (POLIDEPORTIVO)",
    "latitude": "28.07167296",
    "longitude": "-15.42125089"
  },
  {
    "id": "146",
    "name": "C/ SCHUBERT, 17",
    "latitude": "28.07462943",
    "longitude": "-15.42112338"
  },
  {
    "id": "147",
    "name": "C/ PEDRO HIDALGO, FRENTE 91",
    "latitude": "28.07160369",
    "longitude": "-15.42389192"
  },
  {
    "id": "148",
    "name": "CARRETERA DE LOMO BLANCO, 5",
    "latitude": "28.08330107",
    "longitude": "-15.44355460"
  },
  {
    "id": "149",
    "name": "C/ SAN CRISTÓBAL DE LA LAGUNA, FRENTE 51",
    "latitude": "28.06969409",
    "longitude": "-15.42578950"
  },
  {
    "id": "150",
    "name": "C/ FRANCISCO INGLOTT ARTILES, 19",
    "latitude": "28.08228104",
    "longitude": "-15.42013262"
  },
  {
    "id": "151",
    "name": "C/ SAN CRISTÓBAL DE LA LAGUNA, 96",
    "latitude": "28.06973519",
    "longitude": "-15.42767130"
  },
  {
    "id": "152",
    "name": "C/ FRANCISCO INGLOTT ARTILES, 33",
    "latitude": "28.08047426",
    "longitude": "-15.42022347"
  },
  {
    "id": "153",
    "name": "C/ SAN CRISTÓBAL DE LA LAGUNA,  FRENTE 133",
    "latitude": "28.06919756",
    "longitude": "-15.42916429"
  },
  {
    "id": "154",
    "name": "C/ SABINO BERTHELOT, 19",
    "latitude": "28.07930487",
    "longitude": "-15.42086947"
  },
  {
    "id": "155",
    "name": "C/ SAN CRISTÓBAL DE LA LAGUNA, 168",
    "latitude": "28.06821161",
    "longitude": "-15.43004553"
  },
  {
    "id": "156",
    "name": "AVDA. DE AMURGA (C.S. CONO SUR)",
    "latitude": "28.07635956",
    "longitude": "-15.41932988"
  },
  {
    "id": "157",
    "name": "HOYA DE LA PLATA",
    "latitude": "28.06973169",
    "longitude": "-15.41814313"
  },
  {
    "id": "158",
    "name": "AVDA. DE AMURGA (CASAS TEERRERAS EL LASSO, 33)",
    "latitude": "28.07534349",
    "longitude": "-15.42637528"
  },
  {
    "id": "159",
    "name": "C/ CANDELARIA DE LÉON, 6",
    "latitude": "28.07032976",
    "longitude": "-15.41922959"
  },
  {
    "id": "160",
    "name": "AVDA. DE AMURGA (CASAS TERRERAS EL LASSO, 1)",
    "latitude": "28.07501805",
    "longitude": "-15.42727396"
  },
  {
    "id": "161",
    "name": "C/ FARMACEÚTICO ARENCIBIA CABRERA (COFARCA)",
    "latitude": "28.08892502",
    "longitude": "-15.43340434"
  },
  {
    "id": "162",
    "name": "AVDA. DE AMURGA (EL LASSO, BLOQUE 4)",
    "latitude": "28.07540131",
    "longitude": "-15.42863953"
  },
  {
    "id": "163",
    "name": "C/ CONCEJAL ANDRÉS ALVARADO JANINA (LOCAL SOCIAL HOYA DE LA PLATA)",
    "latitude": "28.06966982",
    "longitude": "-15.42126531"
  },
  {
    "id": "164",
    "name": "AVDA. DE AMURGA (EL LASSO, BLOQUE 17)",
    "latitude": "28.07665650",
    "longitude": "-15.42685481"
  },
  {
    "id": "165",
    "name": "AVDA. MARÍTIMA DEL SUR (HOSPITAL MATERNO INSULAR)",
    "latitude": "28.08112248",
    "longitude": "-15.41648922"
  },
  {
    "id": "166",
    "name": "C/ PEDRO HIDALGO, 97",
    "latitude": "28.07141122",
    "longitude": "-15.42409476"
  },
  {
    "id": "167",
    "name": "AVDA. MARÍTIMA DEL SUR (ESCUELA DE ARTE)"
  },
  {
    "id": "168",
    "name": "C/ SALAMANCA, 63",
    "latitude": "28.06945039",
    "longitude": "-15.42517260"
  },
  {
    "id": "169",
    "name": "C/ ARGUINEGUÍN",
    "latitude": "28.10926667",
    "longitude": "-15.45698333"
  },
  {
    "id": "170",
    "name": "C/ SALAMANCA, 99",
    "latitude": "28.06944533",
    "longitude": "-15.42645799"
  },
  {
    "id": "171",
    "name": "C/ REYES CATÓLICOS, 9",
    "latitude": "28.09987737",
    "longitude": "-15.41390051"
  },
  {
    "id": "172",
    "name": "C/ SALAMANCA, 135",
    "latitude": "28.06880847",
    "longitude": "-15.42779444"
  },
  {
    "id": "173",
    "name": "AVDA. PINTOR FELO MONZÓN, 2",
    "latitude": "28.11157449",
    "longitude": "-15.45095811"
  },
  {
    "id": "174",
    "name": "AVDA.  JUAN CARLOS I, 9",
    "latitude": "28.11772515",
    "longitude": "-15.44528582"
  },
  {
    "id": "175",
    "name": "C/ NUEVA, FRENTE  67",
    "latitude": "28.09583700",
    "longitude": "-15.43175200"
  },
  {
    "id": "176",
    "name": "AVDA JUAN CARLOS I, 23",
    "latitude": "28.11532128",
    "longitude": "-15.44790968"
  },
  {
    "id": "177",
    "name": "C/ ANDENES, FRENTE 15",
    "latitude": "28.09851440",
    "longitude": "-15.42847137"
  },
  {
    "id": "178",
    "name": "C/ CANDELARIA DE LEÓN, 7",
    "latitude": "28.07017480",
    "longitude": "-15.41921664"
  },
  {
    "id": "179",
    "name": "C/ CAMINO AL POLVORÍN, 10",
    "latitude": "28.09524628",
    "longitude": "-15.42247002"
  },
  {
    "id": "180",
    "name": "CARRETERA DE SAN LORENZO, FRENTE 128",
    "latitude": "28.08805898",
    "longitude": "-15.47875223"
  },
  {
    "id": "181",
    "name": "C/ CAMINO AL POLVORÍN, 42",
    "latitude": "28.09608061",
    "longitude": "-15.42131482"
  },
  {
    "id": "182",
    "name": "C/ CONCEJAL ANDRES ALVARADO JANINA (LOCAL SOCIAL HOYA DE LA PLATA)",
    "latitude": "28.06969261",
    "longitude": "-15.42102707"
  },
  {
    "id": "183",
    "name": "C/ CAMINO AL POLVORÍN (PLAZA DEL SOL NACIENTE)",
    "latitude": "28.09671206",
    "longitude": "-15.42018084"
  },
  {
    "id": "184",
    "name": "RESIDENCIAL FLOR SIRERA",
    "latitude": "28.10850000",
    "longitude": "-15.46496667"
  },
  {
    "id": "185",
    "name": "C/ BATERÍA DE SAN JUAN, 16",
    "latitude": "28.09587312",
    "longitude": "-15.42076813"
  },
  {
    "id": "186",
    "name": "AVDA. PINTOR FELO MONZÓN, 1",
    "latitude": "28.11115869",
    "longitude": "-15.45070223"
  },
  {
    "id": "187",
    "name": "C/ BATERÍA DE SAN JUAN, 48",
    "latitude": "28.09465959",
    "longitude": "-15.42171466"
  },
  {
    "id": "188",
    "name": "AVDA. PINTOR FELO MONZÓN (TRÓPICO)",
    "latitude": "28.10887583",
    "longitude": "-15.45123472"
  },
  {
    "id": "189",
    "name": "C/ REAL DE SAN ROQUE, FRENTE 11",
    "latitude": "28.09829801",
    "longitude": "-15.42175218"
  },
  {
    "id": "190",
    "name": "C/ ANDENES, 9",
    "latitude": "28.09848032",
    "longitude": "-15.42799993"
  },
  {
    "id": "191",
    "name": "C/ FARNESIO, FRENTE 15",
    "latitude": "28.09841900",
    "longitude": "-15.42438100"
  },
  {
    "id": "192",
    "name": "C/ NÉSTOR ÁLAMO (CAMPO DE LUCHA)",
    "latitude": "28.10259747",
    "longitude": "-15.47141022"
  },
  {
    "id": "193",
    "name": "C/ FARNESIO, FRENTE 59",
    "latitude": "28.09958437",
    "longitude": "-15.42596190"
  },
  {
    "id": "194",
    "name": "CARRETERA EL CARDON (ROTONDA)",
    "latitude": "28.11842316",
    "longitude": "-15.45322759"
  },
  {
    "id": "195",
    "name": "C/ FAMA, FRENTE 85",
    "latitude": "28.09922864",
    "longitude": "-15.42649563"
  },
  {
    "id": "196",
    "name": "AVDA. JUAN XXIII (CLINICA DEL PINO)",
    "latitude": "28.11900322",
    "longitude": "-15.42617075"
  },
  {
    "id": "197",
    "name": "C/ ANDENES, FRENTE 39",
    "latitude": "28.09829686",
    "longitude": "-15.42986910"
  },
  {
    "id": "198",
    "name": "ACCESO ANTIGUA CARCEL",
    "latitude": "28.09437614",
    "longitude": "-15.42371553"
  },
  {
    "id": "199",
    "name": "C/ NUEVA, FRENTE 25",
    "latitude": "28.09734600",
    "longitude": "-15.43081700"
  },
  {
    "id": "200",
    "name": "C/ LOS MANZANO",
    "latitude": "28.09448740",
    "longitude": "-15.42325223"
  },
  {
    "id": "201",
    "name": "C/ BARAHONA, 77",
    "latitude": "28.09461300",
    "longitude": "-15.43318700"
  },
  {
    "id": "202",
    "name": "C/ BATERÍA DE SAN JUAN",
    "latitude": "28.09383204",
    "longitude": "-15.42231542"
  },
  {
    "id": "203",
    "name": "C/ BARAHONA, FRENTE 19",
    "latitude": "28.09209137",
    "longitude": "-15.43392376"
  },
  {
    "id": "204",
    "name": "C/ JUAN DE QUESADA (RECTORADO ULPGC)",
    "latitude": "28.09895037",
    "longitude": "-15.42066098"
  },
  {
    "id": "205",
    "name": "LA MATULA, FRENTE 25",
    "latitude": "28.08951783",
    "longitude": "-15.43590940"
  },
  {
    "id": "206",
    "name": "C/ REAL DE SAN ROQUE, 13",
    "latitude": "28.09794471",
    "longitude": "-15.42157071"
  },
  {
    "id": "207",
    "name": "LA MATULA, FRENTE 61",
    "latitude": "28.08785807",
    "longitude": "-15.43704975"
  },
  {
    "id": "208",
    "name": "C/ FARNESIO, 13",
    "latitude": "28.09830503",
    "longitude": "-15.42431882"
  },
  {
    "id": "209",
    "name": "LA MATULA, FRENTE  95",
    "latitude": "28.08562695",
    "longitude": "-15.43885940"
  },
  {
    "id": "210",
    "name": "C/ FARNESIO, 53",
    "latitude": "28.09937855",
    "longitude": "-15.42584999"
  },
  {
    "id": "211",
    "name": "PUENTE LA MATULA",
    "latitude": "28.08269983",
    "longitude": "-15.44131138"
  },
  {
    "id": "212",
    "name": "C/ FAMA, 71",
    "latitude": "28.09860764",
    "longitude": "-15.42558984"
  },
  {
    "id": "213",
    "name": "CTRA. LOMO BLANCO (HNOS. TOLEDO SUAREZ)",
    "latitude": "28.08476365",
    "longitude": "-15.44114342"
  },
  {
    "id": "214",
    "name": "C/ ANDENES, 19",
    "latitude": "28.09835596",
    "longitude": "-15.42926456"
  },
  {
    "id": "215",
    "name": "CTRA. LOMO BLANCO (LOMO VERDEJO)",
    "latitude": "28.08804474",
    "longitude": "-15.43917529"
  },
  {
    "id": "216",
    "name": "C/ NUEVA, 35",
    "latitude": "28.09697388",
    "longitude": "-15.43076313"
  },
  {
    "id": "217",
    "name": "CTRA. LOMO BLANCO (FELIPE MARTELL)",
    "latitude": "28.08389417",
    "longitude": "-15.44291923"
  },
  {
    "id": "218",
    "name": "C/ NUEVA, 77",
    "latitude": "28.09400375",
    "longitude": "-15.43350638"
  },
  {
    "id": "219",
    "name": "C/ SAN JOSÉ ARTESANO, 24",
    "latitude": "28.08487600",
    "longitude": "-15.44328500"
  },
  {
    "id": "220",
    "name": "C/ BARAHONA, 19",
    "latitude": "28.09188242",
    "longitude": "-15.43396840"
  },
  {
    "id": "221",
    "name": "C/ REAL DE SAN JUAN, 62",
    "latitude": "28.09656541",
    "longitude": "-15.42167028"
  },
  {
    "id": "222",
    "name": "C/ LA MATULA, 25",
    "latitude": "28.08947932",
    "longitude": "-15.43584948"
  },
  {
    "id": "223",
    "name": "C/ SEVERO OCHOA",
    "latitude": "28.09582600",
    "longitude": "-15.42517400"
  },
  {
    "id": "224",
    "name": "C/ LA MATULA, 65",
    "latitude": "28.08752210",
    "longitude": "-15.43708543"
  },
  {
    "id": "225",
    "name": "C/ SEVERO OCHOA,  12",
    "latitude": "28.09505688",
    "longitude": "-15.42762499"
  },
  {
    "id": "226",
    "name": "C/ LA MATULA, 97",
    "latitude": "28.08549651",
    "longitude": "-15.43879333"
  },
  {
    "id": "227",
    "name": "C/ SEVERO OCHOA (GEORGE PIRE)",
    "latitude": "28.09346836",
    "longitude": "-15.42944402"
  },
  {
    "id": "228",
    "name": "C/ AYAGAURES (TANATORIO SAN MIGUEL)",
    "latitude": "28.11290384",
    "longitude": "-15.45582994"
  },
  {
    "id": "229",
    "name": "C/ MIGUEL ÁNGEL ASTURIAS, 5",
    "latitude": "28.09461700",
    "longitude": "-15.42926000"
  },
  {
    "id": "230",
    "name": "CTRA. LOMO BLANCO (PUENTE LA MATULA)",
    "latitude": "28.08242384",
    "longitude": "-15.44206948"
  },
  {
    "id": "231",
    "name": "C/ MIGUEL ÁNGEL ASTURIAS (IGLESIA EL BATÁN)",
    "latitude": "28.09591245",
    "longitude": "-15.42859756"
  },
  {
    "id": "232",
    "name": "CTRA. LOMO BLANCO (HNOS. TOLEDO SUÁREZ)",
    "latitude": "28.08458284",
    "longitude": "-15.44121796"
  },
  {
    "id": "233",
    "name": "C/ PÁRROCO SEGUNDO VEGA, 116",
    "latitude": "28.09647167",
    "longitude": "-15.42866350"
  },
  {
    "id": "234",
    "name": "CTRA. LOMO BLANCO (EL HORNILLO)",
    "latitude": "28.08778873",
    "longitude": "-15.43944946"
  },
  {
    "id": "235",
    "name": "C/ PÁRROCO SEGUNDO VEGA, FRENTE 121",
    "latitude": "28.09563700",
    "longitude": "-15.42968700"
  },
  {
    "id": "236",
    "name": "CTRA. LOMO BLANCO (FELIPE MARTEL)",
    "latitude": "28.08400486",
    "longitude": "-15.44262072"
  },
  {
    "id": "237",
    "name": "C/ PÁRROCO SEGUNDO VEGA, 166",
    "latitude": "28.09462046",
    "longitude": "-15.43054291"
  },
  {
    "id": "238",
    "name": "C/ ARGUINEGUÍN, 8",
    "latitude": "28.10927187",
    "longitude": "-15.45713266"
  },
  {
    "id": "239",
    "name": "C/ PÁRROCO SEGUNDO VEGA, 220",
    "latitude": "28.09282100",
    "longitude": "-15.43222112"
  },
  {
    "id": "240",
    "name": "AUTOVIA DE GUINIGUADA (SAN JUAN BOSCO)",
    "latitude": "28.09762345",
    "longitude": "-15.42267793"
  },
  {
    "id": "241",
    "name": "C/ PÁRROCO SEGUNDO VEGA, 276",
    "latitude": "28.09059700",
    "longitude": "-15.43345600"
  },
  {
    "id": "242",
    "name": "C/ SEVERO OCHOA, FRENTE 10",
    "latitude": "28.09516712",
    "longitude": "-15.42739772"
  },
  {
    "id": "243",
    "name": "AVDA. PRIMERO DE MAYO (CORREOS)",
    "latitude": "28.10619054",
    "longitude": "-15.42020565"
  },
  {
    "id": "244",
    "name": "C/ SEVERO OCHOA (ALBERT SCHWITZER)",
    "latitude": "28.09389805",
    "longitude": "-15.42872907"
  },
  {
    "id": "245",
    "name": "C/ INGENIERO JOSÉ BOSCH Y SINTÉS, 1",
    "latitude": "28.10846881",
    "longitude": "-15.42105064"
  },
  {
    "id": "246",
    "name": "C/ SEVERO OCHOA (GEORGE BERNARD SHAW)",
    "latitude": "28.09281886",
    "longitude": "-15.42992348"
  },
  {
    "id": "247",
    "name": "PLAZA DE LA CONSTITUCIÓN (OBELISCO)",
    "latitude": "28.11221231",
    "longitude": "-15.42332079"
  },
  {
    "id": "248",
    "name": "C/ MIGUEL ANGEL ASTURIAS, FRENTE 5",
    "latitude": "28.09461990",
    "longitude": "-15.42941181"
  },
  {
    "id": "249",
    "name": "PASEO TOMÁS MORALES, FRENTE 69",
    "latitude": "28.11500100",
    "longitude": "-15.42516200"
  },
  {
    "id": "250",
    "name": "C/ MIGUEL ÁNGEL ASTURIAS (IGLESIA EL BATAN)",
    "latitude": "28.09554675",
    "longitude": "-15.42887539"
  },
  {
    "id": "251",
    "name": "PASEO TOMÁS MORALES, 120",
    "latitude": "28.11704759",
    "longitude": "-15.42634139"
  },
  {
    "id": "252",
    "name": "ROTONDA DE LOMO BLANCO",
    "latitude": "28.08319048",
    "longitude": "-15.44604656"
  },
  {
    "id": "253",
    "name": "C/ EMILIO LEY (PISCINAS JULIO NAVARRO)",
    "latitude": "28.12150081",
    "longitude": "-15.43001198"
  },
  {
    "id": "254",
    "name": "C/ ERNEST HEMINGWAY, 9",
    "latitude": "28.09517777",
    "longitude": "-15.42963935"
  },
  {
    "id": "255",
    "name": "C/ PÍO XII (COLEGIO TERESIANO)",
    "latitude": "28.12503134",
    "longitude": "-15.43219560"
  },
  {
    "id": "256",
    "name": "C/ ERNEST HEMINGWAY, FRENTE 132",
    "latitude": "28.09344848",
    "longitude": "-15.43113534"
  },
  {
    "id": "257",
    "name": "C/ PÍO XII (ESTADIO INSULAR)",
    "latitude": "28.12885545",
    "longitude": "-15.43292133"
  },
  {
    "id": "258",
    "name": "C/ ERNEST HEMINGWAY (COLEGIO EL BATÁN)",
    "latitude": "28.09206949",
    "longitude": "-15.43252514"
  },
  {
    "id": "259",
    "name": "C/ GALICIA (MERCADO CENTRAL)",
    "latitude": "28.13367212",
    "longitude": "-15.43309802"
  },
  {
    "id": "260",
    "name": "C/ FARMACÉUTICO ARENCIBIA CABRERA (COFARCA)",
    "latitude": "28.08910679",
    "longitude": "-15.43316805"
  },
  {
    "id": "261",
    "name": "C/ GALICIA, 32",
    "latitude": "28.13519200",
    "longitude": "-15.43325600"
  },
  {
    "id": "262",
    "name": "AVDA. PRIMERO DE MAYO, 35",
    "latitude": "28.10650155",
    "longitude": "-15.42054416"
  },
  {
    "id": "263",
    "name": "C/ TOMÁS MILLER, FRENTE 31",
    "latitude": "28.13749700",
    "longitude": "-15.43343400"
  },
  {
    "id": "264",
    "name": "C/ PASEO TOMÁS MORALES, 5",
    "latitude": "28.10825951",
    "longitude": "-15.42072048"
  },
  {
    "id": "265",
    "name": "C/ LUJÁN PÉREZ, 20",
    "latitude": "28.14956689",
    "longitude": "-15.42961659"
  },
  {
    "id": "266",
    "name": "C/ EMILIO LEY (PARQUE DORAMAS)",
    "latitude": "28.12133333",
    "longitude": "-15.43002611"
  },
  {
    "id": "267",
    "name": "C/ LUJÁN PÉREZ, 66",
    "latitude": "28.15118931",
    "longitude": "-15.42995522"
  },
  {
    "id": "268",
    "name": "AVDA PRIMERO DE MAYO, 1",
    "latitude": "28.10257913",
    "longitude": "-15.41782395"
  },
  {
    "id": "269",
    "name": "C/ TINGUARÓ, 18",
    "latitude": "28.15313212",
    "longitude": "-15.42930192"
  },
  {
    "id": "270",
    "name": "C/ PÍO XII , 27 (COLEGIO TERESIANO)",
    "latitude": "28.12526500",
    "longitude": "-15.43244192"
  },
  {
    "id": "271",
    "name": "C/ GUMIDAFE, 30",
    "latitude": "28.15266359",
    "longitude": "-15.42790479"
  },
  {
    "id": "272",
    "name": "C/ PÍO XII (ESTADIO INSULAR)",
    "latitude": "28.12810555",
    "longitude": "-15.43300823"
  },
  {
    "id": "273",
    "name": "C / OSORIO, 28",
    "latitude": "28.15272573",
    "longitude": "-15.42627959"
  },
  {
    "id": "274",
    "name": "C/ PÍO XII, 75",
    "latitude": "28.13118786",
    "longitude": "-15.43299830"
  },
  {
    "id": "275",
    "name": "C/ OSORIO, 58",
    "latitude": "28.15258677",
    "longitude": "-15.42466660"
  },
  {
    "id": "276",
    "name": "C/ GALICIA, 15 (MERCADO CENTRAL)",
    "latitude": "28.13324527",
    "longitude": "-15.43320134"
  },
  {
    "id": "277",
    "name": "C/ FELIPE MARTELL (LINDERO)",
    "latitude": "28.08571029",
    "longitude": "-15.44230470"
  },
  {
    "id": "278",
    "name": "C/ BANDAMA, 25",
    "latitude": "28.15441694",
    "longitude": "-15.42509488"
  },
  {
    "id": "279",
    "name": "C/ PRIMERO DE MAYO, 56",
    "latitude": "28.10589824",
    "longitude": "-15.41997860"
  },
  {
    "id": "280",
    "name": "AVDA. MESA Y LÓPEZ, 38"
  },
  {
    "id": "281",
    "name": "CARRETERA DE MATA (PL. DEL PINO)",
    "latitude": "28.10778626",
    "longitude": "-15.42188017"
  },
  {
    "id": "282",
    "name": "C/ ALBAREDA (MERCADO DEL PUERTO)",
    "latitude": "28.14800199",
    "longitude": "-15.42933638"
  },
  {
    "id": "283",
    "name": "CARRETERA DE MATA, 10-12  (SAN ANTONIO)",
    "latitude": "28.10701192",
    "longitude": "-15.42324324"
  },
  {
    "id": "284",
    "name": "C/ FARO, 11",
    "latitude": "28.14893104",
    "longitude": "-15.43031036"
  },
  {
    "id": "285",
    "name": "C/ PASEO SAN ANTONIO, FRENTE AL Nº83",
    "latitude": "28.11223200",
    "longitude": "-15.42741900"
  },
  {
    "id": "286",
    "name": "C/ FARO, 43",
    "latitude": "28.15062150",
    "longitude": "-15.43064643"
  },
  {
    "id": "287",
    "name": "PASEO DE SAN ANTONIO, 56",
    "latitude": "28.11380749",
    "longitude": "-15.42851541"
  },
  {
    "id": "288",
    "name": "C/ FARO, 99",
    "latitude": "28.15299552",
    "longitude": "-15.43081932"
  },
  {
    "id": "289",
    "name": "C/ MARIUCHA (PLAZA DON BENITO)",
    "latitude": "28.11333180",
    "longitude": "-15.43034204"
  },
  {
    "id": "290",
    "name": "C/ CORONEL ROCHA (NUEVA ISLETA)",
    "latitude": "28.15538700",
    "longitude": "-15.43076400"
  },
  {
    "id": "291",
    "name": "C/ DON PEDRO INFINITO, 24",
    "latitude": "28.11040879",
    "longitude": "-15.43102190"
  },
  {
    "id": "292",
    "name": "C/ EDUARDO PEÑATE SANTANA, LOCAL 4",
    "latitude": "28.15446770",
    "longitude": "-15.42695659"
  },
  {
    "id": "293",
    "name": "C/ ZARAGOZA, 26",
    "latitude": "28.11115662",
    "longitude": "-15.43283535"
  },
  {
    "id": "294",
    "name": "C/ PALMAR, FRENTE 82",
    "latitude": "28.15333890",
    "longitude": "-15.42361987"
  },
  {
    "id": "295",
    "name": "C/ OBISPO ROMO, FRENTE 27",
    "latitude": "28.11553947",
    "longitude": "-15.43583927"
  },
  {
    "id": "296",
    "name": "CARRETERA DE SAN LORENZO, FRENTE 172",
    "latitude": "28.08403540",
    "longitude": "-15.47825150"
  },
  {
    "id": "297",
    "name": "AVDA. ESCALERITAS, 51",
    "latitude": "28.11859463",
    "longitude": "-15.43707899"
  },
  {
    "id": "298",
    "name": "CARRETERA DE SAN LORENZO, FRENTE 186",
    "latitude": "28.08161667",
    "longitude": "-15.47806667"
  },
  {
    "id": "299",
    "name": "AVDA. ESCALERITAS (CÁRITAS)",
    "latitude": "28.12080612",
    "longitude": "-15.43648968"
  },
  {
    "id": "300",
    "name": "C/ DON PEDRO INFINITO (IGLESIA DE LOS DOLORES)",
    "latitude": "28.11232600",
    "longitude": "-15.42906100"
  },
  {
    "id": "301",
    "name": "AVDA. ESCALERITAS (CLUB LA CORNISA)",
    "latitude": "28.12305500",
    "longitude": "-15.43593238"
  },
  {
    "id": "302",
    "name": "C/ ALCESTE, 27",
    "latitude": "28.11021527",
    "longitude": "-15.43084876"
  },
  {
    "id": "303",
    "name": "PASEO DE CHIL (ESTADIO INSULAR)",
    "latitude": "28.12946569",
    "longitude": "-15.43483307"
  },
  {
    "id": "304",
    "name": "C/ ZARAGOZA, 27",
    "latitude": "28.11105065",
    "longitude": "-15.43291169"
  },
  {
    "id": "305",
    "name": "CONCEPCIÓN ARENAL (PL.ESPAÑA)",
    "latitude": "28.13373530",
    "longitude": "-15.43499338"
  },
  {
    "id": "306",
    "name": "C/ OBISPO ROMO (MERCADO DE ALTAVISTA)",
    "latitude": "28.11460707",
    "longitude": "-15.43536960"
  },
  {
    "id": "307",
    "name": "C/ PÁRROCO VILLAR REINA, F/ Nª8"
  },
  {
    "id": "308",
    "name": "C/ OBISPO ROMO (PARQUE HERMANOS MILLARES)",
    "latitude": "28.11685100",
    "longitude": "-15.43704600"
  },
  {
    "id": "309",
    "name": "PASEO DE CHIL (JARDINES RUBIÓ)"
  },
  {
    "id": "310",
    "name": "AVDA. ESCALERITAS, 48",
    "latitude": "28.12168789",
    "longitude": "-15.43650679"
  },
  {
    "id": "311",
    "name": "C/ TOMÁS MILLER (PLAYA DE LAS CANTERAS)",
    "latitude": "28.14154060",
    "longitude": "-15.43373622"
  },
  {
    "id": "312",
    "name": "PASEO DE CHIL (ESTADIO INSULAR)",
    "latitude": "28.12817245",
    "longitude": "-15.43540648"
  },
  {
    "id": "313",
    "name": "C/ ALFREDO L. JONES, 1",
    "latitude": "28.14218938",
    "longitude": "-15.43026002"
  },
  {
    "id": "314",
    "name": "C/ OLOF PALME, 40",
    "latitude": "28.13333629",
    "longitude": "-15.43560616"
  },
  {
    "id": "315",
    "name": "C/ FARMACÉUTICO PEDRO RIVERO (POLÍGONO CRUZ DE PIEDRA)",
    "latitude": "28.10202434",
    "longitude": "-15.43948537"
  },
  {
    "id": "316",
    "name": "C/ JUAN MANUEL DURÁN GONZÁLEZ, 40",
    "latitude": "28.13526596",
    "longitude": "-15.43549560"
  },
  {
    "id": "317",
    "name": "CARRETERA DE MATA, 42",
    "latitude": "28.10614700",
    "longitude": "-15.42475300"
  },
  {
    "id": "318",
    "name": "Carretera de Mata (Castillo de Mata)",
    "latitude": "28.10659905",
    "longitude": "-15.42246044"
  },
  {
    "id": "319",
    "name": "CARRETERA DE MATA (PARQUE DE LAS REHOYAS)",
    "latitude": "28.10619291",
    "longitude": "-15.42841554"
  },
  {
    "id": "320",
    "name": "CALZADA LATERAL DEL NORTE (DIVINA PASTORA)",
    "latitude": "28.10568018",
    "longitude": "-15.42711183"
  },
  {
    "id": "321",
    "name": "CARRETERA DEL NORTE, 14",
    "latitude": "28.10563952",
    "longitude": "-15.43214646"
  },
  {
    "id": "322",
    "name": "CALZADA LATERAL DEL NORTE (C.S. MILLER BAJO)",
    "latitude": "28.10471823",
    "longitude": "-15.43254494"
  },
  {
    "id": "323",
    "name": "CARRETERA DEL NORTE, 30",
    "latitude": "28.10451564",
    "longitude": "-15.43326697"
  },
  {
    "id": "324",
    "name": "C/ VIRGEN DE LA PALOMA, FRENTE 19",
    "latitude": "28.10539609",
    "longitude": "-15.43450542"
  },
  {
    "id": "325",
    "name": "C/ SANTA LUISA DE MARILLAC, 43",
    "latitude": "28.10585500",
    "longitude": "-15.43399900"
  },
  {
    "id": "326",
    "name": "C/ VIRGEN DE LA PALOMA (IGLESIA DE LA PAZ)",
    "latitude": "28.10687535",
    "longitude": "-15.43405284"
  },
  {
    "id": "327",
    "name": "C/ SANTA LUISA DE MARILLAC (PLAZA MARTÍN COBOS)",
    "latitude": "28.10721623",
    "longitude": "-15.43320084"
  },
  {
    "id": "328",
    "name": "C/ DON PEDRO INFINITO,54",
    "latitude": "28.10967636",
    "longitude": "-15.43237290"
  },
  {
    "id": "329",
    "name": "C/ SANTA LUISA DE MARILLAC (BINGO CINEMA)",
    "latitude": "28.10966293",
    "longitude": "-15.43062645"
  },
  {
    "id": "330",
    "name": "C/ JUAN SARAZÁ ORTÍZ, FRENTE 7",
    "latitude": "28.10326461",
    "longitude": "-15.43232676"
  },
  {
    "id": "331",
    "name": "C/ JUAN SARAZÁ ORTÍZ, 14",
    "latitude": "28.10318122",
    "longitude": "-15.43268188"
  },
  {
    "id": "332",
    "name": "C/ CRUZ DE PIEDRA, 9",
    "latitude": "28.10293172",
    "longitude": "-15.43062065"
  },
  {
    "id": "333",
    "name": "C/ CRUZ DE PIEDRA, FRENTE  7",
    "latitude": "28.10314688",
    "longitude": "-15.43046581"
  },
  {
    "id": "334",
    "name": "C/ CARMEN QUINTANA, 1",
    "latitude": "28.10222300",
    "longitude": "-15.43201100"
  },
  {
    "id": "335",
    "name": "C/ CARMEN QUINTANA, FRENTE  1",
    "latitude": "28.10226217",
    "longitude": "-15.43211517"
  },
  {
    "id": "336",
    "name": "C/ CARMEN QUINTANA, 33",
    "latitude": "28.10144835",
    "longitude": "-15.43394440"
  },
  {
    "id": "337",
    "name": "C/ CARMEN QUINTANA, FRENTE 35",
    "latitude": "28.10151622",
    "longitude": "-15.43398566"
  },
  {
    "id": "338",
    "name": "C/ CARMEN QUINTANA, 71",
    "latitude": "28.09997865",
    "longitude": "-15.43485403"
  },
  {
    "id": "339",
    "name": "C/ CARMEN QUINTANA, FRENTE 73",
    "latitude": "28.10005500",
    "longitude": "-15.43491200"
  },
  {
    "id": "340",
    "name": "C/ PINO APOLINARIO, 9",
    "latitude": "28.09846080",
    "longitude": "-15.43512848"
  },
  {
    "id": "341",
    "name": "C/ ANA BENÍTEZ, FRENTE 92",
    "latitude": "28.09857019",
    "longitude": "-15.43566480"
  },
  {
    "id": "342",
    "name": "C/ PINO APOLINARIO,  53",
    "latitude": "28.09742072",
    "longitude": "-15.43678432"
  },
  {
    "id": "343",
    "name": "C/ ANA BENÍTEZ, FRENTE  42",
    "latitude": "28.09792685",
    "longitude": "-15.43818058"
  },
  {
    "id": "344",
    "name": "C/ PÁRROCO SEGUNDO VEGA, FRENTE 238",
    "latitude": "28.09212897",
    "longitude": "-15.43261084"
  },
  {
    "id": "345",
    "name": "C/ ANA BENÍTEZ, 7",
    "latitude": "28.09673512",
    "longitude": "-15.43906161"
  },
  {
    "id": "346",
    "name": "CARRETERA DE SAN LORENZO (BARRANCO)",
    "latitude": "28.07704002",
    "longitude": "-15.47888710"
  },
  {
    "id": "347",
    "name": "AVDA. PINTOR FELO MONZÓN (BAMBÚ)",
    "latitude": "28.10889861",
    "longitude": "-15.45157945"
  },
  {
    "id": "348",
    "name": "C/ REAL DEL CASTILLO",
    "latitude": "28.10379245",
    "longitude": "-15.42874764"
  },
  {
    "id": "349",
    "name": "C/ PEPE DÁMASO, 32",
    "latitude": "28.09977845",
    "longitude": "-15.47786496"
  },
  {
    "id": "350",
    "name": "C/ REAL DEL CASTILLO, 117",
    "latitude": "28.10182838",
    "longitude": "-15.42342893"
  },
  {
    "id": "351",
    "name": "C/ GOBERNADOR MARÍN ACUÑA (REAL DEL CASTILLO)",
    "latitude": "28.10370053",
    "longitude": "-15.42868714"
  },
  {
    "id": "352",
    "name": "C/ FARMACÉUTICO PEDRO RIVERO, 1",
    "latitude": "28.10202500",
    "longitude": "-15.43965100"
  },
  {
    "id": "353",
    "name": "C/ GOBERNADOR MARÍN ACUÑA, 50",
    "latitude": "28.10347084",
    "longitude": "-15.42559203"
  },
  {
    "id": "355",
    "name": "C/ GOBERNADOR MARÍN ACUÑA, 24",
    "latitude": "28.10247257",
    "longitude": "-15.42409827"
  },
  {
    "id": "356",
    "name": "C/ FARMACEÚTICO PEDRO RIVERO (JOAQUIN BELÓN)",
    "latitude": "28.10441357",
    "longitude": "-15.43709900"
  },
  {
    "id": "357",
    "name": "AVDA. JUAN CARLOS I (HOSPITAL DR. NEGRÍN)",
    "latitude": "28.11892357",
    "longitude": "-15.44438518"
  },
  {
    "id": "359",
    "name": "C/ FARMACEÚTICO PEDRO RIVERO, 20",
    "latitude": "28.10454731",
    "longitude": "-15.43637613"
  },
  {
    "id": "360",
    "name": "C/ AGUSTINA DE ARAGÓN, 67",
    "latitude": "28.10784866",
    "longitude": "-15.43466335"
  },
  {
    "id": "361",
    "name": "C/ FARMACEUTICO PEDRO RIVERO, FRENTE 15",
    "latitude": "28.15005752",
    "longitude": "-15.42390665"
  },
  {
    "id": "362",
    "name": "C/ AGUSTINA DE ARAGÓN, 145",
    "latitude": "28.10626085",
    "longitude": "-15.43760978"
  },
  {
    "id": "363",
    "name": "C/ DON PEDRO INFINITO, 120",
    "latitude": "28.10844300",
    "longitude": "-15.43469500"
  },
  {
    "id": "364",
    "name": "C/ AGUSTINA DE ARAGÓN (IGLESIA SAN MARCOS)",
    "latitude": "28.10548794",
    "longitude": "-15.43923615"
  },
  {
    "id": "365",
    "name": "C/ DON PEDRO INFINITO, 152",
    "latitude": "28.10767575",
    "longitude": "-15.43613000"
  },
  {
    "id": "366",
    "name": "AVDA. ESCALERITAS, 114",
    "latitude": "28.10983953",
    "longitude": "-15.43983806"
  },
  {
    "id": "367",
    "name": "C/ DON PEDRO INFINITO, 194",
    "latitude": "28.10659205",
    "longitude": "-15.43822767"
  },
  {
    "id": "368",
    "name": "AVDA. ESCALERITAS, 104",
    "latitude": "28.11250400",
    "longitude": "-15.43920900"
  },
  {
    "id": "369",
    "name": "C/ DON PEDRO INFINITO, 204",
    "latitude": "28.10592524",
    "longitude": "-15.43969466"
  },
  {
    "id": "370",
    "name": "AVDA, ESCALERITAS, 84",
    "latitude": "28.11484751",
    "longitude": "-15.43853624"
  },
  {
    "id": "371",
    "name": "AVDA. ESCALERITAS, 109",
    "latitude": "28.10765500",
    "longitude": "-15.44002200"
  },
  {
    "id": "372",
    "name": "AVDA. ESCALERITAS, 70",
    "latitude": "28.11791700",
    "longitude": "-15.43750000"
  },
  {
    "id": "373",
    "name": "AVDA. ESCALERITAS, 95",
    "latitude": "28.11011061",
    "longitude": "-15.43956023"
  },
  {
    "id": "374",
    "name": "CARRETERA DEL NORTE (IES CRUZ DE PIEDRA)",
    "latitude": "28.10250537",
    "longitude": "-15.43684270"
  },
  {
    "id": "375",
    "name": "AVDA. ESCALERITAS, 79",
    "latitude": "28.11276772",
    "longitude": "-15.43892124"
  },
  {
    "id": "376",
    "name": "CARRETERA DEL NORTE (FRENTE CC LA BALLENA)",
    "latitude": "28.09995008",
    "longitude": "-15.44217682"
  },
  {
    "id": "377",
    "name": "AVDA. ESCALERITAS, 57",
    "latitude": "28.11480300",
    "longitude": "-15.43831500"
  },
  {
    "id": "378",
    "name": "C/ MANUEL DE FALLA (SALIDA DE LA PATERNA)",
    "latitude": "28.09683443",
    "longitude": "-15.44746392"
  },
  {
    "id": "379",
    "name": "CARRETERA DEL NORTE, 40",
    "latitude": "28.10379400",
    "longitude": "-15.43417300"
  },
  {
    "id": "380",
    "name": "CARRETERA DEL NORTE (CC LA BALLENA)",
    "latitude": "28.10023576",
    "longitude": "-15.44269511"
  },
  {
    "id": "381",
    "name": "CARRETERA DEL NORTE, 68",
    "latitude": "28.10219264",
    "longitude": "-15.43799181"
  },
  {
    "id": "382",
    "name": "CARRETERA DE SAN LORENZO, 383",
    "latitude": "28.07877087",
    "longitude": "-15.46436433"
  },
  {
    "id": "383",
    "name": "CARRETERA DE LOMO BLANCO (PUENTE AÉREO)"
  },
  {
    "id": "384",
    "name": "C/ HENRY DUNANT, FRENTE 42",
    "latitude": "28.11153400",
    "longitude": "-15.43731800"
  },
  {
    "id": "385",
    "name": "CARRETERA DEL NORTE (LOS TARAHALES)",
    "latitude": "28.09817151",
    "longitude": "-15.44707158"
  },
  {
    "id": "386",
    "name": "C/ CRONISTA MARTÍN MORENO,8",
    "latitude": "28.09692058",
    "longitude": "-15.44439660"
  },
  {
    "id": "387",
    "name": "ACCESO MANUEL DE FALLA",
    "latitude": "28.09668618",
    "longitude": "-15.44789220"
  },
  {
    "id": "388",
    "name": "C/ PEPE DAMASO, 43",
    "latitude": "28.09966983",
    "longitude": "-15.47757964"
  },
  {
    "id": "389",
    "name": "C/ MANUEL DE FALLA, FRENTE 118",
    "latitude": "28.09682659",
    "longitude": "-15.44650644"
  },
  {
    "id": "390",
    "name": "CARRETERA DEL NORTE, 234",
    "latitude": "28.09755340",
    "longitude": "-15.44857700"
  },
  {
    "id": "391",
    "name": "C/ MANUEL DE FALLA, FRENTE  11",
    "latitude": "28.09471138",
    "longitude": "-15.44703379"
  },
  {
    "id": "392",
    "name": "AVDA. ESCALERITAS, 169",
    "latitude": "28.09961686",
    "longitude": "-15.44820850"
  },
  {
    "id": "393",
    "name": "C/ MANUEL DE FALLA, FRENTE 84",
    "latitude": "28.09376748",
    "longitude": "-15.44771361"
  },
  {
    "id": "394",
    "name": "AVDA. ESCALERITAS (URBANIZACIÓN PARQUE CENTRAL)",
    "latitude": "28.10160327",
    "longitude": "-15.44635541"
  },
  {
    "id": "395",
    "name": "C/ MANUEL DE FALLA, FRENTE 72",
    "latitude": "28.09204925",
    "longitude": "-15.44866234"
  },
  {
    "id": "396",
    "name": "AVDA. MESA Y LÓPEZ, 7",
    "latitude": "28.13387101",
    "longitude": "-15.43231803"
  },
  {
    "id": "397",
    "name": "C/ EMILIO ARRIETA, FRENTE  7",
    "latitude": "28.09443851",
    "longitude": "-15.44963731"
  },
  {
    "id": "398",
    "name": "AVDA. MESA Y LÓPEZ (C.S. ALCARAVANERAS)",
    "latitude": "28.13355997",
    "longitude": "-15.43605426"
  },
  {
    "id": "399",
    "name": "CARRETERA DEL NORTE (LOS TARAHALES)",
    "latitude": "28.09703875",
    "longitude": "-15.44800104"
  },
  {
    "id": "400",
    "name": "AVDA. MESA Y LÓPEZ (MADERA Y CORCHO)",
    "latitude": "28.13146244",
    "longitude": "-15.43860728"
  },
  {
    "id": "401",
    "name": "AVDA. ESCALERITAS, 178",
    "latitude": "28.10043835",
    "longitude": "-15.44779524"
  },
  {
    "id": "402",
    "name": "C/ COSTA RICA, FRENTE 33",
    "latitude": "28.13057562",
    "longitude": "-15.44015525"
  },
  {
    "id": "403",
    "name": "AVDA. JUAN CARLOS I, 50",
    "latitude": "28.11319800",
    "longitude": "-15.45011000"
  },
  {
    "id": "404",
    "name": "AVDA. JUAN CARLOS I (C.C. LAS RAMBLAS)",
    "latitude": "28.11376850",
    "longitude": "-15.44927462"
  },
  {
    "id": "405",
    "name": "CARRETERA DEL NORTE, 225",
    "latitude": "28.09781972",
    "longitude": "-15.44864853"
  },
  {
    "id": "406",
    "name": "C/ CASTILLEJOS, 23",
    "latitude": "28.12993446",
    "longitude": "-15.44268981"
  },
  {
    "id": "407",
    "name": "C/ INDUSTRIAL JOSÉ SÁNCHEZ PEÑATE (CC LAS ARENAS),NORTE",
    "latitude": "28.12836942",
    "longitude": "-15.44727828"
  },
  {
    "id": "408",
    "name": "C/ CASTILLEJOS, 71",
    "latitude": "28.12824465",
    "longitude": "-15.44480135"
  },
  {
    "id": "409",
    "name": "AVDA. MESA Y LÓPEZ (C.S. ALCARAVANERAS)",
    "latitude": "28.13359792",
    "longitude": "-15.43633527"
  },
  {
    "id": "410",
    "name": "C/ NUMANCIA, 68",
    "latitude": "28.13034744",
    "longitude": "-15.44549834"
  },
  {
    "id": "411",
    "name": "AVDA. MESA Y LÓPEZ (MADERA Y CORCHO)",
    "latitude": "28.13188393",
    "longitude": "-15.43845010"
  },
  {
    "id": "412",
    "name": "PLAZA DE SAN LORENZO",
    "latitude": "28.07613727",
    "longitude": "-15.47631371"
  },
  {
    "id": "413",
    "name": "C/ FERNANDO GUANARTEME, 118",
    "latitude": "28.13247544",
    "longitude": "-15.44074408"
  },
  {
    "id": "414",
    "name": "C/ MARIA DOLOROSA, 1",
    "latitude": "28.16460815",
    "longitude": "-15.43425559"
  },
  {
    "id": "415",
    "name": "C/ SIMANCAS, 70",
    "latitude": "28.12976843",
    "longitude": "-15.44406523"
  },
  {
    "id": "416",
    "name": "CARRETERA DE SAN LORENZO, FRENTE 282",
    "latitude": "28.07578207",
    "longitude": "-15.47401197"
  },
  {
    "id": "417",
    "name": "C/ PÉREZ MUÑOZ, 34",
    "latitude": "28.14995330",
    "longitude": "-15.42700365"
  },
  {
    "id": "418",
    "name": "C/ LORENZO SUÁREZ RIVERO, 9",
    "latitude": "28.07624321",
    "longitude": "-15.47270363"
  },
  {
    "id": "419",
    "name": "C/ PÉREZ MUÑOZ, 78",
    "latitude": "28.15159796",
    "longitude": "-15.42737760"
  },
  {
    "id": "420",
    "name": "C/ VEGA DE RÍO PALMA, 48",
    "latitude": "28.07365000",
    "longitude": "-15.46800000"
  },
  {
    "id": "421",
    "name": "C/ PÉREZ MUÑOZ, 100",
    "latitude": "28.15289311",
    "longitude": "-15.42765421"
  },
  {
    "id": "422",
    "name": "C/ CAMILO MARTINÓN NAVARRO, 52",
    "latitude": "28.07471091",
    "longitude": "-15.46515619"
  },
  {
    "id": "423",
    "name": "AUDITORIO",
    "latitude": "28.12971272",
    "longitude": "-15.44755935"
  },
  {
    "id": "424",
    "name": "C/ SAN ANDRÉS, 28",
    "latitude": "28.09533035",
    "longitude": "-15.48173436"
  },
  {
    "id": "425",
    "name": "AVDA. SEMANA DE LA PASION, 29"
  },
  {
    "id": "426",
    "name": "C/ SAN FERMÍN, 20",
    "latitude": "28.09465235",
    "longitude": "-15.48335249"
  },
  {
    "id": "427",
    "name": "PARQUE SANTA CATALINA",
    "latitude": "28.14032572",
    "longitude": "-15.43078623"
  },
  {
    "id": "428",
    "name": "C/ GALILEA, 34",
    "latitude": "28.09293096",
    "longitude": "-15.48559476"
  },
  {
    "id": "429",
    "name": "PARQUE SANTA CATALINA",
    "latitude": "28.14065106",
    "longitude": "-15.43080396"
  },
  {
    "id": "430",
    "name": "C/ CAMILO MARTINÓN NAVARRO, 30",
    "latitude": "28.07477489",
    "longitude": "-15.46373875"
  },
  {
    "id": "431",
    "name": "C/ REAL DE SAN JUAN, 2",
    "latitude": "28.09873337",
    "longitude": "-15.41775943"
  },
  {
    "id": "432",
    "name": "C/ JUAN MANUEL DURÁN GONZÁLEZ, 20",
    "latitude": "28.07681437",
    "longitude": "-15.47807658"
  },
  {
    "id": "433",
    "name": "C/ REAL DE SAN JUAN, 14",
    "latitude": "28.09838024",
    "longitude": "-15.41940149"
  },
  {
    "id": "434",
    "name": "C/ JUAN SÁNCHEZ DE LA COBA, 16",
    "latitude": "28.08093990",
    "longitude": "-15.41967693"
  },
  {
    "id": "435",
    "name": "C/ REAL DE SAN JUAN F/89",
    "latitude": "28.09770084",
    "longitude": "-15.42052588"
  },
  {
    "id": "436",
    "name": "AUTOVÍA DE GUINIGUADA",
    "latitude": "28.09412800",
    "longitude": "-15.42466300"
  },
  {
    "id": "437",
    "name": "AVDA. MESA Y LOPEZ, 86",
    "latitude": "28.13008803",
    "longitude": "-15.44059819"
  },
  {
    "id": "438",
    "name": "C/ SEVERO OCHOA (C.S. EL BATÁN)",
    "latitude": "28.09570028",
    "longitude": "-15.42524570"
  },
  {
    "id": "439",
    "name": "C/ INDUSTRIAL JOSÉ SÁNCHEZ PEÑATE (CC LAS ARENAS),SUR",
    "latitude": "28.12804445",
    "longitude": "-15.44695504"
  },
  {
    "id": "440",
    "name": "C/ JOSE LUIS GUERRA DE ARMAS (CRUCE LAS COLORADAS)",
    "latitude": "28.15507903",
    "longitude": "-15.42960237"
  },
  {
    "id": "441",
    "name": "C/ LEÓN Y CASTILLO (CLUB NÁUTICO)",
    "latitude": "28.13286013",
    "longitude": "-15.42957828"
  },
  {
    "id": "442",
    "name": "C/ CRUZ DEL OVEJERO, 28",
    "latitude": "28.09851349",
    "longitude": "-15.47743023"
  },
  {
    "id": "443",
    "name": "INTERCAMBIADOR TAMARACEITE"
  },
  {
    "id": "444",
    "name": "CARRETERA GENERAL DE TAMARACEITE, 172",
    "latitude": "28.09820212",
    "longitude": "-15.47506598"
  },
  {
    "id": "445",
    "name": "AVDA. DE AMURGA (PASEO BLAS CABRERA FELIPE)",
    "latitude": "28.07690029",
    "longitude": "-15.41727242"
  },
  {
    "id": "446",
    "name": "CARRETERA GENERAL DE TAMARACEITE, 140",
    "latitude": "28.09681726",
    "longitude": "-15.47366362"
  },
  {
    "id": "447",
    "name": "AVDA. DE AMURGA (CASABLANCA)",
    "latitude": "28.07575109",
    "longitude": "-15.41892348"
  },
  {
    "id": "448",
    "name": "CARRETERA GENERAL DE TAMARACEITE, 68"
  },
  {
    "id": "449",
    "name": "SABINO BERTHELOT (ENLACE LINEAS 9- 12-13)",
    "latitude": "28.07990480",
    "longitude": "-15.41839898"
  },
  {
    "id": "450",
    "name": "CARRETERA DE TAMARACEITE F/Nº 35  (ROTONDA LOMO LOS FRAILES)",
    "latitude": "28.09680900",
    "longitude": "-15.46694000"
  },
  {
    "id": "451",
    "name": "C/ DOCTOR SVENTENIUS (ENLACE LINEAS 12-13)",
    "latitude": "28.08093765",
    "longitude": "-15.41865902"
  },
  {
    "id": "452",
    "name": "CARRETERA DE TAMARACEITE (URBANIZACIÓN LA GUILLENA)",
    "latitude": "28.09596900",
    "longitude": "-15.46249700"
  },
  {
    "id": "453",
    "name": "C/ OBISPO MARQUINA (CEIP SANTIAGO RAMON Y CAJAL)",
    "latitude": "28.10657983",
    "longitude": "-15.42540633"
  },
  {
    "id": "454",
    "name": "C/ MIMOSA (NARDO)",
    "latitude": "28.11515937",
    "longitude": "-15.45042666"
  },
  {
    "id": "455",
    "name": "C/ SAN CRISTÓBAL DE LA LAGUNA, 196",
    "latitude": "28.06733920",
    "longitude": "-15.43055699"
  },
  {
    "id": "456",
    "name": "CARRETERA DE TAMARACEITE FRENTE 71",
    "latitude": "28.09820291",
    "longitude": "-15.46199721"
  },
  {
    "id": "457",
    "name": "C/ JOSE LUIS GUERRA DE ARMAS (ALONSO QUIJANO)",
    "latitude": "28.15457010",
    "longitude": "-15.42824975"
  },
  {
    "id": "458",
    "name": "CARRETERA DE TAMARACEITE (LAS PERRERAS)",
    "latitude": "28.10340273",
    "longitude": "-15.46209377"
  },
  {
    "id": "459",
    "name": "C/ CRUZ DEL OVEJERO, 25",
    "latitude": "28.09845968",
    "longitude": "-15.47722238"
  },
  {
    "id": "460",
    "name": "CARRETERA DE TAMARACEITE, FRENTE 21",
    "latitude": "28.10656704",
    "longitude": "-15.46064323"
  },
  {
    "id": "461",
    "name": "CARRETERA GENERAL DE TAMARACEITE, 171",
    "latitude": "28.09797373",
    "longitude": "-15.47495281"
  },
  {
    "id": "462",
    "name": "CARRETERA DE TAMARACEITE (URB. IND. LOMO BLANCO)",
    "latitude": "28.11004300",
    "longitude": "-15.45848600"
  },
  {
    "id": "463",
    "name": "CARRETERA GENERAL DE TAMARACEITE, 143",
    "latitude": "28.09697278",
    "longitude": "-15.47392197"
  },
  {
    "id": "464",
    "name": "CARRETERA DEL CARDÓN (CRUCE LAS TORRES)",
    "latitude": "28.11537671",
    "longitude": "-15.45539082"
  },
  {
    "id": "465",
    "name": "GLORIA",
    "latitude": "28.10784587",
    "longitude": "-15.42480201"
  },
  {
    "id": "466",
    "name": "CARRETERA DEL CARDÓN (URBANIZACIÓN DÍAZ CASANOVAS)",
    "latitude": "28.11721500",
    "longitude": "-15.45487900"
  },
  {
    "id": "467",
    "name": "C/ RAFAEL MESA Y LOPEZ (CEIP TIMPLISTA JOSE ANTONIO RAMOS)",
    "latitude": "28.10942745",
    "longitude": "-15.42535856"
  },
  {
    "id": "468",
    "name": "CARRETERA DEL CARDÓN, FRENTE 49",
    "latitude": "28.11924600",
    "longitude": "-15.45218874"
  },
  {
    "id": "469",
    "name": "CARRETERA GENERAL DEL NORTE",
    "latitude": "28.09638125",
    "longitude": "-15.46514011"
  },
  {
    "id": "470",
    "name": "CARRETERA DE CHILE, FRENTE 91",
    "latitude": "28.12059260",
    "longitude": "-15.44795693"
  },
  {
    "id": "471",
    "name": "CARRETERA GENERAL DEL NORTE (LA GUILLENA)",
    "latitude": "28.09583760",
    "longitude": "-15.46257458"
  },
  {
    "id": "472",
    "name": "CARRETERA DE CHILE, 68",
    "latitude": "28.12321724",
    "longitude": "-15.44680022"
  },
  {
    "id": "473",
    "name": "CARRETERA TAMARACEITE (LAS PERRERAS)",
    "latitude": "28.09800342",
    "longitude": "-15.46181343"
  },
  {
    "id": "474",
    "name": "CARRETERA DE CHILE (CAMPO DE GOLF)",
    "latitude": "28.12606489",
    "longitude": "-15.44533125"
  },
  {
    "id": "475",
    "name": "CARRETERA TAMARACEITE, FRENTE 62",
    "latitude": "28.10302000",
    "longitude": "-15.46223900"
  },
  {
    "id": "476",
    "name": "C/ FERNANDO GUANARTEME, 150",
    "latitude": "28.12798471",
    "longitude": "-15.44309903"
  },
  {
    "id": "477",
    "name": "CARRETERA DE TAMARACEITE  (LAS MAJADILLAS)",
    "latitude": "28.10719300",
    "longitude": "-15.46004300"
  },
  {
    "id": "478",
    "name": "C/ FERNANDO GUANARTEME, 138"
  },
  {
    "id": "479",
    "name": "CARRETERA TAMARACEITE (DANONE)",
    "latitude": "28.11001800",
    "longitude": "-15.45838000"
  },
  {
    "id": "480",
    "name": "C/ CAMILO MARTINÓN NAVARRO (TISCAMANITA)",
    "latitude": "28.07608398",
    "longitude": "-15.46347002"
  },
  {
    "id": "481",
    "name": "CARRETERA DEL CARDÓN (CRUCE LAS TORRES)",
    "latitude": "28.11552611",
    "longitude": "-15.45524008"
  },
  {
    "id": "482",
    "name": "C/ FERNANDO GUANARTEME, 62",
    "latitude": "28.13425793",
    "longitude": "-15.43864987"
  },
  {
    "id": "483",
    "name": "CARRETERA DEL CARDÓN (URBANIZACIÓN DÍAZ CASANOVAS)",
    "latitude": "28.11755590",
    "longitude": "-15.45430995"
  },
  {
    "id": "484",
    "name": "CARRETERA DE ALMATRICHE, 30",
    "latitude": "28.07819476",
    "longitude": "-15.46198505"
  },
  {
    "id": "485",
    "name": "CARRETERA DEL CARDÓN, 41",
    "latitude": "28.11932269",
    "longitude": "-15.45171311"
  },
  {
    "id": "486",
    "name": "C/ FERNANDO GUANARTEME (PLAZOLETA FARRAY)",
    "latitude": "28.13690609",
    "longitude": "-15.43560278"
  },
  {
    "id": "487",
    "name": "C/ CAMINO VIEJO EL CARDÓN, 1",
    "latitude": "28.11941500",
    "longitude": "-15.44806500"
  },
  {
    "id": "488",
    "name": "C/ FERNANDO GUANARTEME (FRAY JUNIPERO)",
    "latitude": "28.13791231",
    "longitude": "-15.43450775"
  },
  {
    "id": "489",
    "name": "CARRETERA DE CHILE, 75",
    "latitude": "28.12200319",
    "longitude": "-15.44707911"
  },
  {
    "id": "490",
    "name": "C/ JUNCO (AMAPOLA)",
    "latitude": "28.11040447",
    "longitude": "-15.45406470"
  },
  {
    "id": "491",
    "name": "CARRETERA DE CHILE, 45",
    "latitude": "28.12343135",
    "longitude": "-15.44673943"
  },
  {
    "id": "492",
    "name": "CARRETERA DE ALMATRICHE, 138",
    "latitude": "28.08384489",
    "longitude": "-15.46164149"
  },
  {
    "id": "493",
    "name": "CARRETERA DE CHILE (CAMPO DE GOLF)",
    "latitude": "28.12548311",
    "longitude": "-15.44596575"
  },
  {
    "id": "494",
    "name": "C/ MUNGUÍA, 8",
    "latitude": "28.10628901",
    "longitude": "-15.41529528"
  },
  {
    "id": "495",
    "name": "C/ FERNANDO GUANARTEME, 185",
    "latitude": "28.12776724",
    "longitude": "-15.44303675"
  },
  {
    "id": "496",
    "name": "AVDA. RAFAEL CABRERA (SAN TELMO)",
    "latitude": "28.10874434",
    "longitude": "-15.41593360"
  },
  {
    "id": "497",
    "name": "AVDA. MESA Y LÓPEZ, 85",
    "latitude": "28.12973954",
    "longitude": "-15.44068230"
  },
  {
    "id": "498",
    "name": "C/ JUNCO (HIPERDINO)",
    "latitude": "28.11271671",
    "longitude": "-15.45497396"
  },
  {
    "id": "499",
    "name": "C/ RAFAEL MESA Y LOPEZ (EL AUDAZ)",
    "latitude": "28.11095829",
    "longitude": "-15.42730261"
  },
  {
    "id": "500",
    "name": "C/ AREQUIPA (GUAGUAS MUNICIPALES)",
    "latitude": "28.15654496",
    "longitude": "-15.42173551"
  },
  {
    "id": "501",
    "name": "C/ MADRESELVA, FRENTE 69",
    "latitude": "28.11178743",
    "longitude": "-15.45248011"
  },
  {
    "id": "502",
    "name": "CARRETERA A LAS TORRES, 21 ESQUINA MADRESELVA",
    "latitude": "28.11326083",
    "longitude": "-15.45455575"
  },
  {
    "id": "504",
    "name": "CARRETERA DE ALMATRICHE, 94",
    "latitude": "28.08628079",
    "longitude": "-15.45911917"
  },
  {
    "id": "506",
    "name": "C/ NARDO, 31",
    "latitude": "28.11475511",
    "longitude": "-15.45066714"
  },
  {
    "id": "507",
    "name": "C/ IGNACIO PEREZ GALDOS CON CALZADA LATERAL DEL NORTE",
    "latitude": "28.10524735",
    "longitude": "-15.42584632"
  },
  {
    "id": "508",
    "name": "C/ MADRESELVA F/Nº 82",
    "latitude": "28.11244264",
    "longitude": "-15.45392114"
  },
  {
    "id": "509",
    "name": "Aparcamiento Inter-Modal El Rincón",
    "latitude": "28.05721273",
    "longitude": "-15.44888206"
  },
  {
    "id": "510",
    "name": "C/ ACONCAGUA, 1",
    "latitude": "28.09415819",
    "longitude": "-15.43944544"
  },
  {
    "id": "511",
    "name": "AVDA. MESA Y LÓPEZ, 42",
    "latitude": "28.13537591",
    "longitude": "-15.43404839"
  },
  {
    "id": "512",
    "name": "C/ ACONCAGUA (COLEGIO CASABLANCA III)",
    "latitude": "28.09358878",
    "longitude": "-15.44249855"
  },
  {
    "id": "513",
    "name": "C/ LENTINI (MONOPOL)",
    "latitude": "28.10231351",
    "longitude": "-15.41517606"
  },
  {
    "id": "514",
    "name": "San Cristobal Estribor",
    "latitude": "28.07627947",
    "longitude": "-15.41524849"
  },
  {
    "id": "515",
    "name": "C/ ACONCAGUA, FRENTE 3",
    "latitude": "28.09482887",
    "longitude": "-15.43909110"
  },
  {
    "id": "516",
    "name": "AVDA. MARITIMA DEL SUR",
    "latitude": "28.07997344",
    "longitude": "-15.41592869"
  },
  {
    "id": "517",
    "name": "C/ ACONCAGUA  (COLEGIO CASABLANCA III)",
    "latitude": "28.09379555",
    "longitude": "-15.44242272"
  },
  {
    "id": "518",
    "name": "C/ARCHIVERO JOAQUIN BLANCO MONTESDEOCA (PEDRO BARBER)",
    "latitude": "28.11264997",
    "longitude": "-15.45157819"
  },
  {
    "id": "519",
    "name": "C/ ARCHIVERO JOAQUIN BLANCO (MIMOSA)",
    "latitude": "28.11297418",
    "longitude": "-15.45153947"
  },
  {
    "id": "520",
    "name": "C/ ARCHIVERO JOAQUIN BLANCO MONTESDEOCA , 21",
    "latitude": "28.11377304",
    "longitude": "-15.45366599"
  },
  {
    "id": "521",
    "name": "C/ PASEO SAN ANTONIO, 4",
    "latitude": "28.10791577",
    "longitude": "-15.42244699"
  },
  {
    "id": "522",
    "name": "C/ PASEO SAN ANTONIO, 27",
    "latitude": "28.10807649",
    "longitude": "-15.42250610"
  },
  {
    "id": "523",
    "name": "AVDA. RAFAEL CABRERA (TEATRO)",
    "latitude": "28.10426990",
    "longitude": "-15.41373656"
  },
  {
    "id": "524",
    "name": "C/ PASEO DE SAN ANTONIO, 85",
    "latitude": "28.11216365",
    "longitude": "-15.42750149"
  },
  {
    "id": "525",
    "name": "C/ ARMINDA, FRENTE 1",
    "latitude": "28.08487416",
    "longitude": "-15.43732423"
  },
  {
    "id": "526",
    "name": "San Cristobal Acceso Av Maritima",
    "latitude": "28.07970410",
    "longitude": "-15.41570158"
  },
  {
    "id": "527",
    "name": "C/ FARMACÉUTICO ARENCIBIA CABRERA 28",
    "latitude": "28.08730238",
    "longitude": "-15.43500149"
  },
  {
    "id": "528",
    "name": "TAFIRA BAJA",
    "latitude": "28.07219945",
    "longitude": "-15.44969635"
  },
  {
    "id": "529",
    "name": "C/ ARCHIVERO JOAQUÍN BLANCO MONTESDEOCA (RTDA. NICOLÁS DÍAZ CHICO)",
    "latitude": "28.11459034",
    "longitude": "-15.45479426"
  },
  {
    "id": "530",
    "name": "C/ ALCALDE DÍAZ SAAVEDRA NAVARRO (PRUDENCIO GUZMÁN)",
    "latitude": "28.09654898",
    "longitude": "-15.41240578"
  },
  {
    "id": "531",
    "name": "C/ VERACRUZ, 16",
    "latitude": "28.06313583",
    "longitude": "-15.42448423"
  },
  {
    "id": "532",
    "name": "C/ FARMACÉUTICO ARENCIBIA CABRERA, FRENTE 18",
    "latitude": "28.08753762",
    "longitude": "-15.43463279"
  },
  {
    "id": "533",
    "name": "C/ MARIANAO, 60",
    "latitude": "28.06148008",
    "longitude": "-15.42866242"
  },
  {
    "id": "534",
    "name": "C/ PINO APOLINARIO (IGLESIA LOMO APOLINARIO)",
    "latitude": "28.09606358",
    "longitude": "-15.43821409"
  },
  {
    "id": "535",
    "name": "C/ MONTERREY, 1",
    "latitude": "28.06101268",
    "longitude": "-15.43054257"
  },
  {
    "id": "536",
    "name": "C/ BUENOS AIRES, 43",
    "latitude": "28.10709462",
    "longitude": "-15.42001072"
  },
  {
    "id": "540",
    "name": "C/ ARMINDA (LA FAVORITA)",
    "latitude": "28.08502373",
    "longitude": "-15.43726612"
  },
  {
    "id": "541",
    "name": "AVDA. DE AMURGA (IGLESIA)",
    "latitude": "28.07679758",
    "longitude": "-15.42599958"
  },
  {
    "id": "543",
    "name": "C/ PROFESOR LOZANO (CANARIAS 7)",
    "latitude": "28.15602513",
    "longitude": "-15.41769200"
  },
  {
    "id": "544",
    "name": "C/ MARIANAO, 5",
    "latitude": "28.06337698",
    "longitude": "-15.42262054"
  },
  {
    "id": "545",
    "name": "PLAZA BARRANCO LA BALLENA",
    "latitude": "28.11378567",
    "longitude": "-15.44654109"
  },
  {
    "id": "546",
    "name": "C/ MARIANAO, 53",
    "latitude": "28.06233582",
    "longitude": "-15.42509372"
  },
  {
    "id": "547",
    "name": "C/ VIRGEN DEL PILAR, 28",
    "latitude": "28.11628439",
    "longitude": "-15.44497616"
  },
  {
    "id": "548",
    "name": "C/ MARIANAO, 103",
    "latitude": "28.06153790",
    "longitude": "-15.42769719"
  },
  {
    "id": "549",
    "name": "C/ CAMINO VIEJO EL CARDÓN, FRENTE 74",
    "latitude": "28.11585100",
    "longitude": "-15.45487100"
  },
  {
    "id": "551",
    "name": "C/ CAMINO VIEJO EL CARDÓN, 55",
    "latitude": "28.11801235",
    "longitude": "-15.45262649"
  },
  {
    "id": "552",
    "name": "C/ PROFESOR LOZANO, 10",
    "latitude": "28.15616443",
    "longitude": "-15.41693370"
  },
  {
    "id": "554",
    "name": "C/ DOCTOR JUAN DOMÍNGUEZ PÉREZ, 25",
    "latitude": "28.15831285",
    "longitude": "-15.41383490"
  },
  {
    "id": "555",
    "name": "C/ DOCTOR JUAN DOMÍNGUEZ PÉREZ, 2",
    "latitude": "28.15650663",
    "longitude": "-15.41538347"
  },
  {
    "id": "556",
    "name": "AVDA AMURGA (IGLESIA)",
    "latitude": "28.07672085",
    "longitude": "-15.42611416"
  },
  {
    "id": "557",
    "name": "C/ DOCTOR JUAN DOMÍNGUEZ PÉREZ, 18",
    "latitude": "28.15967767",
    "longitude": "-15.41215611"
  },
  {
    "id": "558",
    "name": "C/ VIRGEN DEL PILAR (PLAZA BARRANCO DE LA BALLENA)",
    "latitude": "28.11369031",
    "longitude": "-15.44683802"
  },
  {
    "id": "559",
    "name": "C/ PINO APOLINARIO, 86"
  },
  {
    "id": "560",
    "name": "C/ VIRGEN DEL PILAR, FRENTE 26",
    "latitude": "28.11580577",
    "longitude": "-15.44559363"
  },
  {
    "id": "561",
    "name": "CARRETERA EL CARDÓN, FRENTE 118",
    "latitude": "28.11954534",
    "longitude": "-15.44808653"
  },
  {
    "id": "562",
    "name": "C/ MANUEL DE FALLA (NUEVA PATERNA)",
    "latitude": "28.09007560",
    "longitude": "-15.45037105"
  },
  {
    "id": "563",
    "name": "CARRETERA DE LOMO BLANCO (IES FELO MONZON)",
    "latitude": "28.08183197",
    "longitude": "-15.44717101"
  },
  {
    "id": "564",
    "name": "C/ MANUEL DE FALLA, FRENTE 52",
    "latitude": "28.09084298",
    "longitude": "-15.45065649"
  },
  {
    "id": "565",
    "name": "CTRA. LOMO BLANCO, 94",
    "latitude": "28.07771030",
    "longitude": "-15.44837508"
  },
  {
    "id": "566",
    "name": "C/ MANUEL DE FALLA (COLEGIO LA PATERNA)",
    "latitude": "28.09233677",
    "longitude": "-15.44942352"
  },
  {
    "id": "567",
    "name": "CTRA. LOMO BLANCO (URBANIZACIÓN EL ZURBARÁN)",
    "latitude": "28.07605634",
    "longitude": "-15.44965018"
  },
  {
    "id": "568",
    "name": "C/ DOCTOR JUAN DOMÍNGUEZ PÉREZ, 49",
    "latitude": "28.16023381",
    "longitude": "-15.41189860"
  },
  {
    "id": "569",
    "name": "C/ VERACRUZ, 36",
    "latitude": "28.06244067",
    "longitude": "-15.42666283"
  },
  {
    "id": "570",
    "name": "C/ ZARAGOZA ( DON PEDRO INFINITO)",
    "latitude": "28.10952859",
    "longitude": "-15.43179345"
  },
  {
    "id": "572",
    "name": "C/ JUAN MANUEL DURÁN GONZÁLEZ, 20",
    "latitude": "28.13546790",
    "longitude": "-15.43258464"
  },
  {
    "id": "573",
    "name": "MIGUEL CURBELO AUTORIDAD PORTUARIA",
    "latitude": "28.14746999",
    "longitude": "-15.41944519"
  },
  {
    "id": "574",
    "name": "AUTOVÍA GUINIGUADA (TEATRO GUINIGUADA)",
    "latitude": "28.10218437",
    "longitude": "-15.41489331"
  },
  {
    "id": "575",
    "name": "ROTONDA CAPITAN N.MASTRO",
    "latitude": "28.14520028",
    "longitude": "-15.41617123"
  },
  {
    "id": "576",
    "name": "C/ PEPE DÁMASO, 17",
    "latitude": "28.10042345",
    "longitude": "-15.47440757"
  },
  {
    "id": "577",
    "name": "MUELLE LEON Y CASTILLO GASOLINERA BP",
    "latitude": "28.14805283",
    "longitude": "-15.41680789"
  },
  {
    "id": "578",
    "name": "CTRA. LOMO BLANCO (URBANIZACIÓN EL ZURBARÁN)",
    "latitude": "28.07582280",
    "longitude": "-15.44961066"
  },
  {
    "id": "579",
    "name": "PLAZA DE LA CONSTITUCIÓN (OBELISCO)",
    "latitude": "28.15321039",
    "longitude": "-15.41446462"
  },
  {
    "id": "579",
    "name": "Av de las Petroliferas Depositos Comerciales",
    "latitude": "28.15321039",
    "longitude": "-15.41446462"
  },
  {
    "id": "580",
    "name": "CTRA. LOMO BLANCO, 81",
    "latitude": "28.07996776",
    "longitude": "-15.44734574"
  },
  {
    "id": "581",
    "name": "C/ PEPE DÁMASO, 12",
    "latitude": "28.10059141",
    "longitude": "-15.47450911"
  },
  {
    "id": "582",
    "name": "CARRETERA DE LOMO BLANCO, FRENTE 51",
    "latitude": "28.08190527",
    "longitude": "-15.44702524"
  },
  {
    "id": "583",
    "name": "C/ BETANIA, 69",
    "latitude": "28.10085208",
    "longitude": "-15.46958906"
  },
  {
    "id": "585",
    "name": "C/ BETANIA, 41",
    "latitude": "28.10218770",
    "longitude": "-15.46855411"
  },
  {
    "id": "586",
    "name": "MIGUEL CURBELO AUTORIDAD PORTUARIA",
    "latitude": "28.14761894",
    "longitude": "-15.41959613"
  },
  {
    "id": "587",
    "name": "C/ BETANIA, 7",
    "latitude": "28.10347977",
    "longitude": "-15.46756990"
  },
  {
    "id": "588",
    "name": "MUELLE LEON Y CASTILLO GASOLINERA BP",
    "latitude": "28.15053671",
    "longitude": "-15.41716683"
  },
  {
    "id": "589",
    "name": "C/ SAN BORONDÓN, 10"
  },
  {
    "id": "590",
    "name": "Av de las Petroliferas Depositos Comerciales",
    "latitude": "28.15370725",
    "longitude": "-15.41426450"
  },
  {
    "id": "591",
    "name": "Av de las Petroliferas Astican",
    "latitude": "28.15633593",
    "longitude": "-15.41180648"
  },
  {
    "id": "592",
    "name": "Av de las Petroliferas Astican",
    "latitude": "28.15665976",
    "longitude": "-15.41200213"
  },
  {
    "id": "593",
    "name": "Av de las Petroliferas Repnaval",
    "latitude": "28.16001750",
    "longitude": "-15.40959689"
  },
  {
    "id": "594",
    "name": "Av de las Petroliferas Repnaval",
    "latitude": "28.16008567",
    "longitude": "-15.40987283"
  },
  {
    "id": "595",
    "name": "AVDA. DE LA FERIA (URBANIZACIÓN LOS GERANIOS)",
    "latitude": "28.10677982",
    "longitude": "-15.44715777"
  },
  {
    "id": "596",
    "name": "C/ HEBRÓN, 2",
    "latitude": "28.10436964",
    "longitude": "-15.46920083"
  },
  {
    "id": "597",
    "name": "C/ ARCHIVERO JOAQUIN BLANCO MONTESDEOCA, FRENTE 3",
    "latitude": "28.11121276",
    "longitude": "-15.44902018"
  },
  {
    "id": "598",
    "name": "C/ HEBRÓN, 24",
    "latitude": "28.10329337",
    "longitude": "-15.47040944"
  },
  {
    "id": "599",
    "name": "C/ GALILEA, FRENTE 6",
    "latitude": "28.09394067",
    "longitude": "-15.48525731"
  },
  {
    "id": "600",
    "name": "C/ VENTURA DORESTE,  7",
    "latitude": "28.10147428",
    "longitude": "-15.47229754"
  },
  {
    "id": "601",
    "name": "C/ SAN ANDRÉS, FRENTE 6",
    "latitude": "28.09670325",
    "longitude": "-15.48160749"
  },
  {
    "id": "602",
    "name": "AV. DE LAS PETROLIFERAS (REINA SOFIA)",
    "latitude": "28.16078442",
    "longitude": "-15.40735560"
  },
  {
    "id": "603",
    "name": "CARRETERA DE TEROR",
    "latitude": "28.09766274",
    "longitude": "-15.48032062"
  },
  {
    "id": "604",
    "name": "C/ LAS BORRERAS, 1",
    "latitude": "28.10659200",
    "longitude": "-15.45027100"
  },
  {
    "id": "605",
    "name": "CIENCIAS BÁSICAS/ INFORMÁTICA",
    "latitude": "28.07276171",
    "longitude": "-15.45190456"
  },
  {
    "id": "606",
    "name": "C/ ARCHIVERO JOAQUIN BLANCO MONTESDEOCA, 3",
    "latitude": "28.11111083",
    "longitude": "-15.44941125"
  },
  {
    "id": "607",
    "name": "C/ GOBERNADOR MARÍN ACUÑA (HOSPITAL JUAN CARLOS I)",
    "latitude": "28.10272338",
    "longitude": "-15.42396032"
  },
  {
    "id": "608",
    "name": "AVDA. DE LA FERIA (URBANIZACIÓN LOS GERANIOS)",
    "latitude": "28.10673489",
    "longitude": "-15.44702843"
  },
  {
    "id": "609",
    "name": "NELSON MANDELA (ACCESO)",
    "latitude": "28.16329692",
    "longitude": "-15.40510719"
  },
  {
    "id": "610",
    "name": "C/ ALICANTE (C.S. SAN JOSÉ)",
    "latitude": "28.09261832",
    "longitude": "-15.41386382"
  },
  {
    "id": "611",
    "name": "C/ SAN JOSÉ ARTESANO, 46",
    "latitude": "28.08363953",
    "longitude": "-15.44478491"
  },
  {
    "id": "612",
    "name": "CIENCIAS BÁSICAS/ TEOLOGÍA",
    "latitude": "28.07254928",
    "longitude": "-15.45168200"
  },
  {
    "id": "613",
    "name": "CARRETERA LOMO BLANCO, 54",
    "latitude": "28.07993757",
    "longitude": "-15.44743423"
  },
  {
    "id": "614",
    "name": "C/ NUEVA, 73",
    "latitude": "28.09561363",
    "longitude": "-15.43181682"
  },
  {
    "id": "615",
    "name": "HOSPITAL JUAN CARLOS I",
    "latitude": "28.10214904",
    "longitude": "-15.42286773"
  },
  {
    "id": "616",
    "name": "NELSON MANDELA (SALIDA)",
    "latitude": "28.16350391",
    "longitude": "-15.40548006"
  },
  {
    "id": "617",
    "name": "AVDA. DE LA FERIA (INFECAR)",
    "latitude": "28.10650176",
    "longitude": "-15.44489934"
  },
  {
    "id": "618",
    "name": "C/ GALILEA, 8",
    "latitude": "28.09394774",
    "longitude": "-15.48532654"
  },
  {
    "id": "619",
    "name": "HOSPITAL JUAN CARLOS I (REHABILITACIÓN)",
    "latitude": "28.08821273",
    "longitude": "-15.45921457"
  },
  {
    "id": "620",
    "name": "C/ SAN ANDRÉS, 6",
    "latitude": "28.09692700",
    "longitude": "-15.48176500"
  },
  {
    "id": "621",
    "name": "C/ ACONCAGUA, 38",
    "latitude": "28.09175293",
    "longitude": "-15.44561027"
  },
  {
    "id": "622",
    "name": "CARRETERA DE TEROR, 16",
    "latitude": "28.09778670",
    "longitude": "-15.48008504"
  },
  {
    "id": "623",
    "name": "C/ SAN ANDRÉS, 39",
    "latitude": "28.09494947",
    "longitude": "-15.48196495"
  },
  {
    "id": "624",
    "name": "AVDA. PINTOR FELO MONZÓN (FRENTE HIPERCOR)",
    "latitude": "28.09540800",
    "longitude": "-15.45576000"
  },
  {
    "id": "625",
    "name": "CARRETERA DEL CENTRO (ANTIGUA CÁRCEL)",
    "latitude": "28.09343000",
    "longitude": "-15.42541500"
  },
  {
    "id": "626",
    "name": "C/ CASTILLO, 16",
    "latitude": "28.09950100",
    "longitude": "-15.41753469"
  },
  {
    "id": "627",
    "name": "C/ LAS BORRERAS, 10",
    "latitude": "28.10716720",
    "longitude": "-15.45290081"
  },
  {
    "id": "628",
    "name": "REINA SOFIA",
    "latitude": "28.16100866",
    "longitude": "-15.40743164"
  },
  {
    "id": "629",
    "name": "C/ LAS BORRERAS, FRENTE 1",
    "latitude": "28.10669135",
    "longitude": "-15.45022259"
  },
  {
    "id": "630",
    "name": "C/ ACONCAGUA- CRUCE CON ORINOCO",
    "latitude": "28.09240859",
    "longitude": "-15.44421175"
  },
  {
    "id": "631",
    "name": "C/ SAN FERNANDO, 38",
    "latitude": "28.09417100",
    "longitude": "-15.48337400"
  },
  {
    "id": "633",
    "name": "AVDA. DE AMURGA (CARRETERA SAN JUAN DE DIOS)",
    "latitude": "28.07776493",
    "longitude": "-15.42736762"
  },
  {
    "id": "634",
    "name": "C/ EUFEMIANO JURADO (JUZGADOS)",
    "latitude": "28.09466289",
    "longitude": "-15.41355416"
  },
  {
    "id": "635",
    "name": "C/ FONDOS DE SEGURA, FRENTE 17",
    "latitude": "28.10916323",
    "longitude": "-15.45309508"
  },
  {
    "id": "636",
    "name": "AVDA. PINTOR FELO MONZÓN, 37",
    "latitude": "28.09810961",
    "longitude": "-15.45456870"
  },
  {
    "id": "637",
    "name": "AVDA. PINTOR FELO MONZÓN, 28",
    "latitude": "28.10444394",
    "longitude": "-15.45278578"
  },
  {
    "id": "638",
    "name": "AVDA. PINTOR FELO MONZÓN, 29",
    "latitude": "28.10080625",
    "longitude": "-15.45337326"
  },
  {
    "id": "639",
    "name": "C/ PROFESOR LOZANO (CATAMARCA)",
    "latitude": "28.15437676",
    "longitude": "-15.42088955"
  },
  {
    "id": "640",
    "name": "C/ EUFEMIANO JURADO (REYES CATÓLICOS)",
    "latitude": "28.09602409",
    "longitude": "-15.41454396"
  },
  {
    "id": "641",
    "name": "C/ PROFESOR LOZANO (ROTONDA AREQUIPA)",
    "latitude": "28.15597359",
    "longitude": "-15.42037056"
  },
  {
    "id": "642",
    "name": "AVDA. ALCALDE JOSÉ RAMÍREZ BETHENCOURT (PARQUE ROMANO)",
    "latitude": "28.12609813",
    "longitude": "-15.42801724"
  },
  {
    "id": "643",
    "name": "C/ SABINO BERTHELOT, 26",
    "latitude": "28.07848400",
    "longitude": "-15.42249600"
  },
  {
    "id": "644",
    "name": "C/ CÓRDOBA (BOMBEROS VEGUETA)",
    "latitude": "28.09487132",
    "longitude": "-15.41543186"
  },
  {
    "id": "646",
    "name": "CATAMARCA, FRENTE  2",
    "latitude": "28.15240226",
    "longitude": "-15.41862534"
  },
  {
    "id": "648",
    "name": "C/ PROFESOR LOZANO, 34",
    "latitude": "28.15628312",
    "longitude": "-15.42011735"
  },
  {
    "id": "650",
    "name": "C/ SABINO BERTHELOT, 39",
    "latitude": "28.07836047",
    "longitude": "-15.42265652"
  },
  {
    "id": "651",
    "name": "AVDA.DE AMURGA (EL LASSO, BLOQUE 1)",
    "latitude": "28.07444052",
    "longitude": "-15.42920846"
  },
  {
    "id": "655",
    "name": "C/ GUANTÁNAMO, FRENTE 121",
    "latitude": "28.06043506",
    "longitude": "-15.42779674"
  },
  {
    "id": "656",
    "name": "AVDA. DE AMURGA (ACCESO A LOS GRANJEROS)",
    "latitude": "28.07434026",
    "longitude": "-15.42920045"
  },
  {
    "id": "657",
    "name": "C/ GUANTÁNAMO, 108",
    "latitude": "28.05962546",
    "longitude": "-15.43021447"
  },
  {
    "id": "658",
    "name": "AVDA. DE AMURGA (CARRETERA SAN JUAN DE DIOS)",
    "latitude": "28.07748775",
    "longitude": "-15.42753163"
  },
  {
    "id": "659",
    "name": "LOMO DEL CAPON POSTERIOR, 6",
    "latitude": "28.05461416",
    "longitude": "-15.44739407"
  },
  {
    "id": "660",
    "name": "C/ MARIANAO, FRENTE 82",
    "latitude": "28.06089536",
    "longitude": "-15.43013769"
  },
  {
    "id": "661",
    "name": "C/ GALILEA, 31",
    "latitude": "28.09235342",
    "longitude": "-15.48558908"
  },
  {
    "id": "662",
    "name": "C/ GUANTÁNAMO, 115",
    "latitude": "28.06047293",
    "longitude": "-15.42745696"
  },
  {
    "id": "663",
    "name": "C/ ALBAHACA (I.E.S. JOSE SARAMAGO)",
    "latitude": "28.10762163",
    "longitude": "-15.44858877"
  },
  {
    "id": "664",
    "name": "C/ GUANTÁNAMO, 165",
    "latitude": "28.05956861",
    "longitude": "-15.43014485"
  },
  {
    "id": "665",
    "name": "C/ JUDAS TADEO (BARRANQUILLO)",
    "latitude": "28.09091313",
    "longitude": "-15.48514483"
  },
  {
    "id": "666",
    "name": "PARQUE TECNOLÓGICO",
    "latitude": "28.07948400",
    "longitude": "-15.45341200"
  },
  {
    "id": "667",
    "name": "C/ REAL DEL CASTILLO"
  },
  {
    "id": "668",
    "name": "AVDA. ALCALDE JOSÉ RAMÍREZ BETHENCOURT (CARVAJAL)",
    "latitude": "28.05898325",
    "longitude": "-15.44538206"
  },
  {
    "id": "669",
    "name": "C/ REAL DEL CASTILLO (SAN NICOLÁS)"
  },
  {
    "id": "670",
    "name": "C/ ALBAHACA (I.E.S. JOSE SARAMAGO)",
    "latitude": "28.10764961",
    "longitude": "-15.44871867"
  },
  {
    "id": "671",
    "name": "C/ SIERRA NEVADA, FRENTE  44"
  },
  {
    "id": "672",
    "name": "C/ JUDAS TADEO, 34",
    "latitude": "28.09109443",
    "longitude": "-15.48293958"
  },
  {
    "id": "673",
    "name": "C/ GUANTÁNAMO (CENTRO P. SALTO DEL NEGRO)",
    "latitude": "28.05927698",
    "longitude": "-15.43221207"
  },
  {
    "id": "674",
    "name": "C/ GUANTÁNAMO, 215",
    "latitude": "28.05921781",
    "longitude": "-15.43205363"
  },
  {
    "id": "675",
    "name": "C/ ISLA DE LA GRACIOSA, FRENTE 72",
    "latitude": "28.05742280",
    "longitude": "-15.44313758"
  },
  {
    "id": "676",
    "name": "C/ ARQUITECTO LAUREANO ARROYO, 102B",
    "latitude": "28.05897973",
    "longitude": "-15.44740941"
  },
  {
    "id": "677",
    "name": "C/ ISLA DE LA GRACIOSA, FRENTE 42",
    "latitude": "28.05671423",
    "longitude": "-15.44474050"
  },
  {
    "id": "678",
    "name": "C/ ARQUITECTO LAUREANO ARROYO, 64",
    "latitude": "28.05802328",
    "longitude": "-15.45020791"
  },
  {
    "id": "679",
    "name": "C/ ISLA DE LA GRACIOSA, 41",
    "latitude": "28.05603648",
    "longitude": "-15.44585545"
  },
  {
    "id": "680",
    "name": "C/ SAN JUDAS TADEO (BARRANQUILLO)",
    "latitude": "28.09082338",
    "longitude": "-15.48519218"
  },
  {
    "id": "681",
    "name": "C/ ARQUITECTO JOSE LUIS JIMENEZ, 3",
    "latitude": "28.05647575",
    "longitude": "-15.44836105"
  },
  {
    "id": "682",
    "name": "BIBLIOTECA UNIVERSITARIA",
    "latitude": "28.07562612",
    "longitude": "-15.45171712"
  },
  {
    "id": "683",
    "name": "VIAL SIN NOMBRE",
    "latitude": "28.05834100",
    "longitude": "-15.44941100"
  },
  {
    "id": "684",
    "name": "ALAMEDA DE COLÓN",
    "latitude": "28.10281451",
    "longitude": "-15.41650267"
  },
  {
    "id": "685",
    "name": "C/ ISLA DE LA MONTAÑA CLARA, FRENTE 5",
    "latitude": "28.05536614",
    "longitude": "-15.44666535"
  },
  {
    "id": "686",
    "name": "BERNARDINO CORREA VIERA (C.S. TRIANA)",
    "latitude": "28.10115824",
    "longitude": "-15.41856073"
  },
  {
    "id": "687",
    "name": "C/ ARQUITECTO LAUREANO ARROYO, 73",
    "latitude": "28.05801468",
    "longitude": "-15.45040246"
  },
  {
    "id": "688",
    "name": "BIBLIOTECA UNIVERSITARIA",
    "latitude": "28.07560663",
    "longitude": "-15.45203463"
  },
  {
    "id": "689",
    "name": "BERNARDINO CORREA VIERA,  FRENTE 13"
  },
  {
    "id": "690",
    "name": "AULARIO CIENCIAS JURÍDICAS",
    "latitude": "28.07808621",
    "longitude": "-15.44945454"
  },
  {
    "id": "691",
    "name": "CIENCIAS JURIDICAS (MÓDULO B)",
    "latitude": "28.07812217",
    "longitude": "-15.44924846"
  },
  {
    "id": "692",
    "name": "C/ TABLERO DE GONZALO, FRENTE  7",
    "latitude": "28.05771786",
    "longitude": "-15.43917275"
  },
  {
    "id": "693",
    "name": "C/ JUDAS TADEO, 36",
    "latitude": "28.09112199",
    "longitude": "-15.48354604"
  },
  {
    "id": "694",
    "name": "C/ MIGUEL MARTIN FERNANDEZ DE LA TORRE (CENTRO DE MENORES)",
    "latitude": "28.05780926",
    "longitude": "-15.44177340"
  },
  {
    "id": "695",
    "name": "C/ MANZANILLA FRENTE 14",
    "latitude": "28.10999741",
    "longitude": "-15.45251217"
  },
  {
    "id": "696",
    "name": "C/ TUNERILLAS, FRENTE 20",
    "latitude": "28.09556838",
    "longitude": "-15.44956316"
  },
  {
    "id": "698",
    "name": "AVDA. PINTOR FELO MONZÓN, 17",
    "latitude": "28.10639046",
    "longitude": "-15.45195683"
  },
  {
    "id": "699",
    "name": "C/ TABLERO DE GONZALO",
    "latitude": "28.05774264",
    "longitude": "-15.43939416"
  },
  {
    "id": "700",
    "name": "AVDA. PINTOR FELO MONZÓN, 25",
    "latitude": "28.10288015",
    "longitude": "-15.45280084"
  },
  {
    "id": "701",
    "name": "C/ CÉSAR MANRIQUE, 88",
    "latitude": "28.09950811",
    "longitude": "-15.47030666"
  },
  {
    "id": "702",
    "name": "AVDA. DE ANSITE ( FRENTE CEMENTERIO DEL PUERTO)",
    "latitude": "28.12374403",
    "longitude": "-15.43849903"
  },
  {
    "id": "703",
    "name": "AVDA. DE ANSITE (CEMENTERIO DEL PUERTO)",
    "latitude": "28.12391100",
    "longitude": "-15.43858200"
  },
  {
    "id": "704",
    "name": "C/ HOYA DE LA GALLINA (ESTADIO GRAN CANARIA)",
    "latitude": "28.09538092",
    "longitude": "-15.45615470"
  },
  {
    "id": "705",
    "name": "HOSPITAL DR. NEGRÍN (HOSPITALIZACIÓN)",
    "latitude": "28.12094700",
    "longitude": "-15.44320800"
  },
  {
    "id": "706",
    "name": "ROTONDA HOSPITAL DR. NEGRÍN",
    "latitude": "28.12056169",
    "longitude": "-15.44349890"
  },
  {
    "id": "708",
    "name": "AVDA. JUAN CARLOS I (ROTONDA HOSPITAL DR. NEGRÍN)",
    "latitude": "28.11967626",
    "longitude": "-15.44297458"
  },
  {
    "id": "709",
    "name": "CARRETERA CIUDAD SAN JUAN DE DIOS (GUINCHO)",
    "latitude": "28.07394523",
    "longitude": "-15.42670652"
  },
  {
    "id": "711",
    "name": "C/ PARDELA 14",
    "latitude": "28.07345541",
    "longitude": "-15.42917868"
  },
  {
    "id": "712",
    "name": "C/ MIMOSA",
    "latitude": "28.11273969",
    "longitude": "-15.45242320"
  },
  {
    "id": "713",
    "name": "C/ GAVILAN (RESIDENCIAL LOS GRANJEROS)"
  },
  {
    "id": "714",
    "name": "CIENCIAS BÁSICAS",
    "latitude": "28.07340700",
    "longitude": "-15.45278050"
  },
  {
    "id": "715",
    "name": "CARRETERA CIUDAD SAN JUAN DE DIOS (GUINCHO)",
    "latitude": "28.07385293",
    "longitude": "-15.42715730"
  },
  {
    "id": "717",
    "name": "C/ MIMOSA",
    "latitude": "28.11243404",
    "longitude": "-15.45251268"
  },
  {
    "id": "719",
    "name": "C/ CAMELIA, FRENTE 11",
    "latitude": "28.07710400",
    "longitude": "-15.44457391"
  },
  {
    "id": "721",
    "name": "AVDA. PINTOR FELO MONZÓN, 22",
    "latitude": "28.10633776",
    "longitude": "-15.45232903"
  },
  {
    "id": "722",
    "name": "C/ MARIUCHA (CANÓDROMO)",
    "latitude": "28.11106431",
    "longitude": "-15.43444884"
  },
  {
    "id": "723",
    "name": "AVDA. PINTOR FELO MONZÓN, 38",
    "latitude": "28.10077655",
    "longitude": "-15.45376994"
  },
  {
    "id": "724",
    "name": "C/ CÉSAR MANRIQUE, 3",
    "latitude": "28.09780817",
    "longitude": "-15.46847127"
  },
  {
    "id": "725",
    "name": "AVDA. PINTOR FELO MONZÓN (C.C. SIETE PALMAS)",
    "latitude": "28.09772358",
    "longitude": "-15.45510951"
  },
  {
    "id": "726",
    "name": "C/ JUDAS TADEO, 66",
    "latitude": "28.09041905",
    "longitude": "-15.48154274"
  },
  {
    "id": "727",
    "name": "Hermanos Dominguez Santana (CC ALISIOS)"
  },
  {
    "id": "728",
    "name": "C/ CÉSAR MANRIQUE, FRENTE 102",
    "latitude": "28.09991275",
    "longitude": "-15.47115522"
  },
  {
    "id": "729",
    "name": "AVDA. 8 DE MARZO DIA INTERNACIONAL DE LA MUJER",
    "latitude": "28.09439326",
    "longitude": "-15.47819019"
  },
  {
    "id": "730",
    "name": "GALILEA 60",
    "latitude": "28.09135773",
    "longitude": "-15.48584761"
  },
  {
    "id": "731",
    "name": "INGENIERÍAS",
    "latitude": "28.07069336",
    "longitude": "-15.45516300"
  },
  {
    "id": "732",
    "name": "AVDA. 8 DE MARZO DIA INTERNACIONAL DE LA MUJER",
    "latitude": "28.09465426",
    "longitude": "-15.47803803"
  },
  {
    "id": "733",
    "name": "C/ CÉSAR MANRIQUE, 12",
    "latitude": "28.09800545",
    "longitude": "-15.46837286"
  },
  {
    "id": "734",
    "name": "AVDA. MESA Y LÓPEZ, 3",
    "latitude": "28.13457771",
    "longitude": "-15.42932705"
  },
  {
    "id": "735",
    "name": "C/ JUDAS TADEO, 61",
    "latitude": "28.09046048",
    "longitude": "-15.48147690"
  },
  {
    "id": "736",
    "name": "AVDA. PINTOR FELO MONZÓN (HIPERCOR)",
    "latitude": "28.09522866",
    "longitude": "-15.45622846"
  },
  {
    "id": "737",
    "name": "HERMANOS DOMINGUEZ SANTANA (DECATHLON)"
  },
  {
    "id": "738",
    "name": "C/ SERVENTIA, 145",
    "latitude": "28.08894276",
    "longitude": "-15.46014830"
  },
  {
    "id": "739",
    "name": "C/ PLUTÓN, FRENTE 14",
    "latitude": "28.09502460",
    "longitude": "-15.46196179"
  },
  {
    "id": "740",
    "name": "CARRETERA DE ALMATRICHE (FÁBRICA DE TEJAS)",
    "latitude": "28.09334853",
    "longitude": "-15.45978930"
  },
  {
    "id": "741",
    "name": "C/ LEOPOLDO ALONSO, 5",
    "latitude": "28.11785040",
    "longitude": "-15.44337448"
  },
  {
    "id": "742",
    "name": "CARRETERA DE ALMATRICHE (GASOLINERA)",
    "latitude": "28.09092323",
    "longitude": "-15.45940072"
  },
  {
    "id": "743",
    "name": "CARRETERA DE ALMATRICHE, 20",
    "latitude": "28.09277944",
    "longitude": "-15.45986288"
  },
  {
    "id": "744",
    "name": "CARRETERA DE ALMATRICHE",
    "latitude": "28.08938852",
    "longitude": "-15.45920485"
  },
  {
    "id": "745",
    "name": "CARRETERA DE ALMATRICHE, FRENTE 47",
    "latitude": "28.09073333",
    "longitude": "-15.45950000"
  },
  {
    "id": "746",
    "name": "CARRETERA DE ALMATRICHE, 135",
    "latitude": "28.08521178",
    "longitude": "-15.45957353"
  },
  {
    "id": "747",
    "name": "CARRETERA DE ALMATRICHE, FRENTE 71",
    "latitude": "28.08951965",
    "longitude": "-15.45933551"
  },
  {
    "id": "748",
    "name": "CARRETERA DE ALMATRICHE, 169",
    "latitude": "28.08351637",
    "longitude": "-15.46155443"
  },
  {
    "id": "749",
    "name": "C/ SERVENTÍA, 189",
    "latitude": "28.09082952",
    "longitude": "-15.46031578"
  },
  {
    "id": "750",
    "name": "CARRETERA DE ALMATRICHE, 259",
    "latitude": "28.08024742",
    "longitude": "-15.46174361"
  },
  {
    "id": "751",
    "name": "C/ SERVENTÍA, 101",
    "latitude": "28.08669700",
    "longitude": "-15.45960600"
  },
  {
    "id": "752",
    "name": "CARRETERA SAN LORENZO, 400",
    "latitude": "28.07777485",
    "longitude": "-15.46251115"
  },
  {
    "id": "753",
    "name": "C/ SERVENTIA, 85",
    "latitude": "28.08796343",
    "longitude": "-15.46017485"
  },
  {
    "id": "754",
    "name": "C/ CAMILO MARTINÓN NAVARRO, 3",
    "latitude": "28.07652896",
    "longitude": "-15.46357315"
  },
  {
    "id": "755",
    "name": "Hermanos Dominguez Santana - CC ALISIOS"
  },
  {
    "id": "756",
    "name": "C/ CAMILO MARTINÓN NAVARRO, FRENTE 32",
    "latitude": "28.07466924",
    "longitude": "-15.46391156"
  },
  {
    "id": "757",
    "name": "C/ PLUTÓN (CEIP HOYA ANDREA)",
    "latitude": "28.09250116",
    "longitude": "-15.46199656"
  },
  {
    "id": "758",
    "name": "C/ CAMILO MARTINÓN NAVARRO, 69",
    "latitude": "28.07463111",
    "longitude": "-15.46513073"
  },
  {
    "id": "759",
    "name": "CARRETERA SAN LORENZO, 230",
    "latitude": "28.07660000",
    "longitude": "-15.47835000"
  },
  {
    "id": "760",
    "name": "C/ LORENZO SUÁREZ RIVERO, FRENTE 51",
    "latitude": "28.07355765",
    "longitude": "-15.46827426"
  },
  {
    "id": "761",
    "name": "CARRETERA NUEVA DE SAN LORENZO"
  },
  {
    "id": "762",
    "name": "C/ LORENZO SUAREZ RIVERO, 22",
    "latitude": "28.07610753",
    "longitude": "-15.47258130"
  },
  {
    "id": "763",
    "name": "CARRETERA NUEVA DE SAN LORENZO (GASOLINERA)",
    "latitude": "28.09326590",
    "longitude": "-15.47798710"
  },
  {
    "id": "764",
    "name": "CARRETERA SAN LORENZO, 282",
    "latitude": "28.07577066",
    "longitude": "-15.47392389"
  },
  {
    "id": "765",
    "name": "CARRETERA SAN LORENZO, 120",
    "latitude": "28.08828816",
    "longitude": "-15.47887024"
  },
  {
    "id": "766",
    "name": "C/ OLIVO (CARRETERA DE ALMATRICHE)",
    "latitude": "28.09386093",
    "longitude": "-15.45900223"
  },
  {
    "id": "767",
    "name": "CARRETERA SAN LORENZO, 154",
    "latitude": "28.08581685",
    "longitude": "-15.47891058"
  },
  {
    "id": "768",
    "name": "C/ HABANA, 27",
    "latitude": "28.12935000",
    "longitude": "-15.43959200"
  },
  {
    "id": "769",
    "name": "CARRETERA SAN LORENZO, 188",
    "latitude": "28.08149239",
    "longitude": "-15.47816039"
  },
  {
    "id": "770",
    "name": "C/ PINTOR JUAN GUILLERMO, FRENTE 19",
    "latitude": "28.12753066",
    "longitude": "-15.43765411"
  },
  {
    "id": "771",
    "name": "CARRETERA SAN LORENZO 254",
    "latitude": "28.07633899",
    "longitude": "-15.47647459"
  },
  {
    "id": "772",
    "name": "C/ PINTOR JUAN GUILLERMO (C.C. LA MINILLA)",
    "latitude": "28.12556023",
    "longitude": "-15.43871993"
  },
  {
    "id": "773",
    "name": "C/ LEOPOLDO ALONSO",
    "latitude": "28.11806562",
    "longitude": "-15.44360396"
  },
  {
    "id": "774",
    "name": "C/ DOÑA JUANA MARRERO, 13",
    "latitude": "28.10765133",
    "longitude": "-15.46202826"
  },
  {
    "id": "775",
    "name": "C/ EL OLIVO (CARRETERA DE ALMATRICHE)",
    "latitude": "28.09404400",
    "longitude": "-15.45892000"
  },
  {
    "id": "776",
    "name": "C/ DOÑA JUANA MARRERO, 61",
    "latitude": "28.10821900",
    "longitude": "-15.46306500"
  },
  {
    "id": "777",
    "name": "C/ HABANA, 28",
    "latitude": "28.12923800",
    "longitude": "-15.43977800"
  },
  {
    "id": "778",
    "name": "C/ CUESTA BLANCA, 9",
    "latitude": "28.09474800",
    "longitude": "-15.46049100"
  },
  {
    "id": "779",
    "name": "AVDA. GARCIA LORCA, FRENTE 14",
    "latitude": "28.12791265",
    "longitude": "-15.43881179"
  },
  {
    "id": "780",
    "name": "C/ CUESTA BLANCA, 41",
    "latitude": "28.09286381",
    "longitude": "-15.46101353"
  },
  {
    "id": "781",
    "name": "C/ DOÑA JUANA MARRERO, FRENTE 11",
    "latitude": "28.10759041",
    "longitude": "-15.46149909"
  },
  {
    "id": "782",
    "name": "JUAN M DURAN GALICIA",
    "latitude": "28.13543771",
    "longitude": "-15.43302209"
  },
  {
    "id": "783",
    "name": "C/ DOÑA JUANA MARRERO, 70",
    "latitude": "28.10829807",
    "longitude": "-15.46345084"
  },
  {
    "id": "786",
    "name": "CARRETERA SUBIDA A TAFIRA (LA FAVORITA)",
    "latitude": "28.08483600",
    "longitude": "-15.43683900"
  },